~Version Information Block
VERS .                  2.0:  CWLS LOG ASCII STANDARD - VERSION 2.0
WRAP .                   NO:  One line per depth step
~Well Information Block
#MNEM.UNIT        Data Type   Information
#---------- ----------------  -----------
STRT .M           455.06640:  START DEPTH
STOP .M          3604.71720:  STOP DEPTH
STEP .M             0.15240:  STEP
NULL .              -999.25:  NULL VALUE
COMP .                     :  COMPANY
WELL .          NO_31/1-3_S:  WELL
FLD  .                     :  FIELD
LOC  .                     :  LOCATION
CTRY .                     :  COUNTRY
STAT .                     :  STATE
CNTY .                     :  COUNTY
SRVC .                     :  SERVICE COMPANY
DATE .                     :  DATE
API  .                     :  API NUMBER
UWI  .                     :  UNIQUE WELL ID
~Curve Information Block
#MNEM.UNIT         API CODE   Curve Description
#---------- ----------------  -----------------
DEPTH.M                    :  Loaded from /private/inp/roever_soer_wells.unl.
LFP_CALI.INCHES                 :  Caliper
LFP_DRHO.G/CM3                 :  Density Correction
LFP_DTST_LOG.US/FT                 :  DT Stonely
LFP_DTS_LOG.US/FT                 :  Shear slowness
LFP_DT_LOG.US/FT                 :  Compressional slowness
LFP_GR.API                  :  Gamma Ray (LFP_GR_1 Edited)
LFP_NPHI.V/V                  :  Neutron
LFP_PEF.B/E                  :  Photoelectric Factor
LFP_RHOB_LOG.G/CM3                 :  Density
LFP_RM.OHMM                 :  Medium Resistivity
LFP_RS.OHMM                 :  Shallow Resistivity
LFP_RT_LOG.OHMM                 :  Deep Resistivity
~Parameter Information Block
#MNEM.UNIT            Value   Description
#---------- ----------------  -----------
PROJECT.     LFP@st-vlinapp01:  
SET  .                  LFP:  
~Other Information Block
# 
~A       DEPTH       LFP_CALI       LFP_DRHO   LFP_DTST_LOG    LFP_DTS_LOG     LFP_DT_LOG         LFP_GR       LFP_NPHI        LFP_PEF   LFP_RHOB_LOG         LFP_RM         LFP_RS     LFP_RT_LOG 
# ...
    2983.38240        12.1995       0.025969       282.3810       152.5406        90.6928        77.4857       0.259496         5.3772         2.5895         3.9823         4.2737         4.2192
    2983.53480        12.1796       0.030022       283.8605       151.6598        89.4747        61.6413       0.266049         5.5881         2.5920         4.0291         4.2675         4.2789
    2983.68720        12.1796       0.033385       284.4971       151.2938        88.2700        63.9203       0.305629         5.7156         2.5956         4.1458         4.3425         4.3881
    2983.83960        12.2443       0.039539       283.8436       150.8258        86.2657        64.4819       0.312284         6.0209         2.5983         4.4259         4.7412         4.6704
    2983.99200        12.2222       0.034177       283.5736       150.4343        85.7686        60.9959       0.288399         5.9233         2.5978         4.5230         4.8513         4.7834
    2984.14440        12.2109       0.029836       285.9959       149.2640        85.0766        64.2490       0.283834         6.0051         2.5903         4.7534         5.0918         5.0402
    2984.29680        12.2949       0.054011       282.4840       148.2188        84.6810        74.0848       0.273922         6.6781         2.6136         4.8638         5.1745         5.1670
    2984.44920        12.3301       0.059483       280.5169       147.6346        84.4465        66.7708       0.270534         6.8622         2.6245         5.0572         5.3137         5.2926
    2984.60160        12.3653       0.064955       283.4617       147.0504        84.2120        59.4567       0.267147         7.0463         2.6355         5.2505         5.4529         5.4181
    2984.75400        12.3421       0.044828       283.0145       145.7233        83.8786        58.7095       0.279731         6.8510         2.6436         5.2877         5.5128         5.4817
    2984.90640        12.3597       0.038857       282.8143       143.8869        83.4368        57.7018       0.282673         6.9456         2.6422         5.4409         5.7416         5.7157
    2985.05880        12.3594       0.032152       284.5967       139.7415        82.4762        55.6915       0.271120         6.8117         2.6768         6.0861         6.5158         6.2152
    2985.21120        12.3095       0.025165       283.3545       137.4640        82.0030        54.2504       0.258260         6.2813         2.7067         6.5744         7.1534         6.6073
    2985.36360        12.3090       0.037851       281.3798       135.5769        81.1186        50.5517       0.240794         6.1793         2.6163         6.3062         7.5702         6.2482
    2985.51600        12.3090       0.036279       281.5298       135.0881        79.9928        58.7872       0.226849         6.1189         2.6149         5.5733         7.0476         5.5439
    2985.66840        12.3090       0.032634       281.3850       136.8044        76.6803        74.8350       0.240235         5.8636         2.6081         5.2318         5.9955         5.3795
    2985.82080        12.3017       0.020381       281.7571       137.3364        75.8083        78.8264       0.246453         5.6080         2.5958         5.1780         5.6390         5.3743
    2985.97320        12.2544       0.035836       282.3329       139.3299        76.5880        52.8498       0.247152         5.8636         2.6076         5.1476         5.3256         5.3835
    2986.12560        12.2735       0.038506       283.5379       146.3248        81.1970        57.5042       0.264372         5.8721         2.6118         5.1335         5.1078         5.4667
    2986.27800        12.2469       0.038273       282.7388       149.4860        83.2783        74.6104       0.284386         5.9834         2.6052         5.0328         5.0381         5.4437
    2986.43040        12.2430       0.031608       281.7560       152.4781        84.9684        70.9996       0.273610         5.8574         2.5993         4.7057         4.9822         5.1627
    2986.58280        12.3090       0.027660       281.5819       153.8028        85.6375        70.2929       0.269660         5.8737         2.5921         4.5609         4.8746         4.9894
    2986.73520        12.3090       0.034874       281.0838       154.1732        84.9728        82.4062       0.311923         5.9332         2.6103         4.5689         4.8267         4.9517
    2986.88760        12.3091       0.050734       280.6095       154.2655        83.7799        73.0954       0.294078         6.2991         2.6174         4.6064         4.8468         4.9622
    2987.04000        12.3065       0.046885       281.6667       154.3629        82.9397        68.6319       0.279921         6.3555         2.6158         4.6475         4.8907         4.9705
    2987.19240        12.2621       0.034835       283.0445       154.3384        83.1402        68.6713       0.289785         6.0484         2.6157         4.6364         4.9596         4.9249
    2987.34480        12.3098       0.043979       281.8755       154.1491        84.5994        66.9535       0.289314         6.5489         2.6058         4.5655         4.9376         4.8891
    2987.49720        12.3598       0.056353       281.9767       154.1076        85.0846        63.8091       0.283790         6.8141         2.6138         4.5884         4.8972         4.9065
    2987.64960        12.3228       0.051175       281.3293       154.3142        83.7289        72.7039       0.284093         6.4490         2.6093         4.6394         4.9334         4.8905
    2987.80200        12.3540       0.051288       280.6664       154.4873        82.4608        75.0501       0.310792         6.5998         2.6086         4.6502         5.0010         4.8125
    2987.95440        12.3964       0.066033       280.3219       154.5340        81.4631        54.6880       0.301279         7.0096         2.6107         4.4718         4.8315         4.6273
    2988.10680        12.4067       0.079418       281.4369       154.5401        80.7221        54.6880       0.293625         6.9392         2.6237         4.2641         4.5283         4.4939
    2988.25920        12.3164       0.049123       281.4881       154.8329        80.6024        64.0027       0.288426         6.1358         2.6181         4.2641         4.5014         4.5039
    2988.41160        12.3085       0.037300       281.7298       155.4542        81.1583        65.2118       0.296039         6.1660         2.6045         4.2596         4.4358         4.5168
    2988.56400        12.3011       0.040135       281.7517       155.7601        81.4611        62.6314       0.298057         6.0772         2.6217         4.2560         4.3749         4.5302
    2988.71640        12.2495       0.036749       281.7445       155.8305        81.6696        67.7127       0.279751         5.9501         2.6274         4.2808         4.3817         4.5900
    2988.86880        12.2435       0.036318       280.7438       155.9039        81.8868        77.4428       0.286996         6.0461         2.6242         4.4147         4.6116         4.7090
    2989.02120        12.2128       0.031707       280.9753       155.9211        81.9378        72.9149       0.274654         6.0099         2.6046         4.4323         4.7223         4.7463
    2989.17360        12.1451       0.036016       281.2014       156.1155        82.0923        64.9215       0.274362         5.3976         2.6292         4.4677         4.7950         4.8132
    2989.32600        12.3834       0.053874       281.4969       157.0156        82.8078        66.5770       0.286972         6.6124         2.6190         4.8604         5.0568         5.1368
    2989.47840        12.3815       0.053747       282.3874       158.2204        83.7654        62.0277       0.321139         6.4904         2.6013         4.9553         5.1218         5.2178
    2989.63080        12.3191       0.032969       282.0745       158.1981        84.2646        61.8926       0.318083         5.7711         2.5676         5.2882         5.7963         5.4362
