~Version Information Block
VERS .                  2.0:  CWLS LOG ASCII STANDARD - VERSION 2.0
WRAP .                   NO:  One line per depth step
~Well Information Block
#MNEM.UNIT        Data Type   Information
#---------- ----------------  -----------
STRT .M          3064.61160:  START DEPTH
STOP .M          3593.28720:  STOP DEPTH
STEP .M             0.15240:  STEP
NULL .              -999.25:  NULL VALUE
COMP .                     :  COMPANY
WELL .          NO_31/1-3_S:  WELL
FLD  .                     :  FIELD
LOC  .                     :  LOCATION
CTRY .                     :  COUNTRY
STAT .                     :  STATE
CNTY .                     :  COUNTY
SRVC .                     :  SERVICE COMPANY
DATE .                     :  DATE
API  .                     :  API NUMBER
UWI  .                     :  UNIQUE WELL ID
~Curve Information Block
#MNEM.UNIT         API CODE   Curve Description
#---------- ----------------  -----------------
DEPTH.M                    :  Loaded from /private/inp/roever_soer_wells.unl.
LFP_K.%                    :  Potassium
LFP_TH.PPM                  :  Thorium
LFP_U.PPM                  :  Uranium
~Parameter Information Block
#MNEM.UNIT            Value   Description
#---------- ----------------  -----------
PROJECT.     LFP@st-vlinapp01:  
SET  .                  LFP:  
~Other Information Block
# 
~A       DEPTH          LFP_K         LFP_TH          LFP_U 
# ...
    3105.45480         2.6287        12.5974         5.3883
    3105.60720         2.7292        12.8049         5.2596
    3105.75960         2.8512        12.8267         5.0953
    3105.91200         2.9481        12.5764         4.9812
    3106.06440         3.0207        12.2763         4.9191
    3106.21680         3.0298        12.0620         4.9242
    3106.36920         2.9832        12.0001         5.0888
    3106.52160         2.9092        12.0521         5.3208
    3106.67400         2.8215        12.1770         5.5519
    3106.82640         2.7216        12.3159         5.7745
    3106.97880         2.6709        12.1161         5.9542
    3107.13120         2.6767        11.7686         5.9656
    3107.28360         2.7081        11.2609         6.0053
    3107.43600         2.7623        10.7433         5.9849
    3107.58840         2.7950        10.9044         5.7036
    3107.74080         2.7866        11.2982         5.3919
    3107.89320         2.7280        11.7917         5.0463
    3108.04560         2.6517        11.9771         4.8129
    3108.19800         2.5811        11.7303         4.7721
    3108.35040         2.5546        11.0226         4.8358
    3108.50280         2.5321        10.1808         4.9948
    3108.65520         2.4957         9.3184         5.2050
    3108.80760         2.4239         8.9562         5.2399
    3108.96000         2.3367         8.8997         5.1889
    3109.11240         2.2887         9.2910         4.8994
    3109.26480         2.2997         9.8879         4.4347
    3109.41720         2.3404        10.6180         3.9423
    3109.56960         2.4331        10.9689         3.6150
    3109.72200         2.5111        11.0942         3.4179
    3109.87440         2.5816        10.8925         3.3518
    3110.02680         2.6976        10.6791         3.2791
    3110.17920         2.7850        10.4064         3.2673
    3110.33160         2.8242        10.3252         3.3658
    3110.48400         2.8298        10.1087         3.6556
    3110.63640         2.7557        10.0761         3.9946
    3110.78880         2.6330        10.0018         4.3875
    3110.94120         2.5219        10.2123         4.4428
    3111.09360         2.4359        10.5004         4.2381
    3111.24600         2.4036        10.9089         3.8598
    3111.39840         2.4306        10.7848         3.5547
    3111.55080         2.5206        10.4775         3.3518
    3111.70320         2.6042         9.6150         3.5206
    3111.85560         2.6738         8.6801         3.7808
    3112.00800         2.7039         8.0050         4.0219
    3112.16040         2.6694         7.9434         4.0514
    3112.31280         2.6284         8.1691         3.9958
    3112.46520         2.6152         8.4761         3.9121
    3112.61760         2.5828         8.9146         3.8961
    3112.77000         2.5937         9.1786         3.9201
    3112.92240         2.6013         9.3932         3.9609
    3113.07480         2.6027         9.8139         3.8491
    3113.22720         2.6039        10.0161         3.7418
    3113.37960         2.5660         9.9863         3.7831
    3113.53200         2.5562        10.0721         3.6279
    3113.68440         2.5644        10.0339         3.4629
    3113.83680         2.6009        10.3261         3.1851
    3113.98920         2.7063        10.5854         2.8568
    3114.14160         2.8272        10.7245         2.6962
    3114.29400         2.9140        10.5878         2.8301
    3114.44640         3.0055        10.4983         2.9159
    3114.59880         3.0172        10.4615         3.1878
    3114.75120         3.0059        10.5850         3.3408
    3114.90360         2.9771        10.7636         3.4308
    3115.05600         2.9250        10.7104         3.6452
    3115.20840         2.8636        10.6159         3.8033
    3115.36080         2.8443        10.5073         3.7705
    3115.51320         2.8110        10.2249         3.7820
    3115.66560         2.7966         9.9741         3.6790
    3115.81800         2.8058         9.4709         3.6460
    3115.97040         2.7794         8.7405         3.7782
    3116.12280         2.7687         8.3494         3.7396
    3116.27520         2.7566         8.1330         3.7203
    3116.42760         2.7687         8.3955         3.5374
    3116.58000         2.7986         8.8027         3.2889
    3116.73240         2.8684         9.0452         3.1026
    3116.88480         2.8820         9.0148         3.1618
    3117.03720         2.8740         8.8497         3.3337
    3117.18960         2.8084         8.6269         3.5850
    3117.34200         2.7646         8.5195         3.6728
    3117.49440         2.7660         8.4450         3.5541
    3117.64680         2.8249         8.3130         3.3123
    3117.79920         2.8852         8.1737         3.0909
    3117.95160         2.9157         8.3366         2.8648
    3118.10400         2.8489         8.5237         2.9320
    3118.25640         2.7717         8.8542         2.9472
    3118.40880         2.6622         9.2484         2.9551
    3118.56120         2.5643         9.4854         2.9850
    3118.71360         2.5490         9.5317         2.8381
    3118.86600         2.5657         9.4913         2.7215
    3119.01840         2.6112         9.1755         2.7223
    3119.17080         2.6399         8.8552         2.7843
    3119.32320         2.6202         8.4740         3.0497
    3119.47560         2.5982         8.0500         3.3095
    3119.62800         2.5887         7.8087         3.4311
    3119.78040         2.6347         7.8335         3.3671
    3119.93280         2.7608         8.0209         3.1282
    3120.08520         2.9077         8.1422         2.9122
    3120.23760         3.0353         8.1431         2.8433
    3120.39000         3.0935         7.9654         2.9392
    3120.54240         3.0710         7.7258         3.1931
    3120.69480         3.0265         7.8132         3.2720
    3120.84720         2.9999         7.9628         3.1311
    3120.99960         2.9685         8.0963         2.9182
    3121.15200         2.9461         8.2207         2.6767
    3121.30440         2.9042         8.0716         2.5597
    3121.45680         2.8308         8.0717         2.5605
    3121.60920         2.7072         8.0663         2.7391
    3121.76160         2.5865         7.9867         3.0473
    3121.91400         2.4701         8.1006         3.3613
    3122.06640         2.3956         8.0824         3.6563
    3122.21880         2.4135         8.0416         3.7470
    3122.37120         2.4879         8.1225         3.6449
    3122.52360         2.6101         7.8544         3.5606
    3122.67600         2.7454         7.6521         3.3827
    3122.82840         2.8327         7.4957         3.2880
    3122.98080         2.8713         7.4210         3.2859
    3123.13320         2.9009         7.7434         3.1198
    3123.28560         2.9031         8.1171         3.0243
    3123.43800         2.9141         8.5474         2.8944
    3123.59040         2.8999         9.0760         2.7746
    3123.74280         2.8703         9.5945         2.7668
    3123.89520         2.8530        10.1332         2.6673
    3124.04760         2.9029        10.5829         2.4909
    3124.20000         2.9487        10.6719         2.4366
    3124.35240         3.0122        10.2654         2.4308
    3124.50480         3.0255         9.3846         2.6856
    3124.65720         3.0144         8.4078         3.0637
    3124.80960         3.0182         7.5838         3.3587
    3124.96200         3.0216         7.2600         3.5440
    3125.11440         3.0349         7.3667         3.5639
    3125.26680         3.0726         7.9751         3.3307
    3125.41920         3.0378         8.6406         3.2287
    3125.57160         3.0094         9.2850         3.0447
    3125.72400         2.9888         9.5426         2.9863
