~Version Information Block
VERS .                  2.0:  CWLS LOG ASCII STANDARD - VERSION 2.0
WRAP .                   NO:  One line per depth step
~Well Information Block
#MNEM.UNIT        Data Type   Information
#---------- ----------------  -----------
STRT .M           455.06640:  START DEPTH
STOP .M          3604.71720:  STOP DEPTH
STEP .M             0.15240:  STEP
NULL .              -999.25:  NULL VALUE
COMP .                     :  COMPANY
WELL .          NO_31/1-3_S:  WELL
FLD  .                     :  FIELD
LOC  .                     :  LOCATION
CTRY .                     :  COUNTRY
STAT .                     :  STATE
CNTY .                     :  COUNTY
SRVC .                     :  SERVICE COMPANY
DATE .                     :  DATE
API  .                     :  API NUMBER
UWI  .                     :  UNIQUE WELL ID
~Curve Information Block
#MNEM.UNIT         API CODE   Curve Description
#---------- ----------------  -----------------
DEPTH.M                    :  Loaded from /private/inp/roever_soer_wells.unl.
LFP_CALI.INCHES                 :  Caliper
LFP_DRHO.G/CM3                 :  Density Correction
LFP_DTST_LOG.US/FT                 :  DT Stonely
LFP_DTS_LOG.US/FT                 :  Shear slowness
LFP_DT_LOG.US/FT                 :  Compressional slowness
LFP_GR.API                  :  Gamma Ray (LFP_GR_1 Edited)
LFP_NPHI.V/V                  :  Neutron
LFP_PEF.B/E                  :  Photoelectric Factor
LFP_RHOB_LOG.G/CM3                 :  Density
LFP_RM.OHMM                 :  Medium Resistivity
LFP_RS.OHMM                 :  Shallow Resistivity
LFP_RT_LOG.OHMM                 :  Deep Resistivity
~Parameter Information Block
#MNEM.UNIT            Value   Description
#---------- ----------------  -----------
PROJECT.     LFP@st-vlinapp01:  
SET  .                  LFP:  
~Other Information Block
# 
~A       DEPTH       LFP_CALI       LFP_DRHO   LFP_DTST_LOG    LFP_DTS_LOG     LFP_DT_LOG         LFP_GR       LFP_NPHI        LFP_PEF   LFP_RHOB_LOG         LFP_RM         LFP_RS     LFP_RT_LOG 
# ...
    3239.41440         8.7075      -0.000885       287.1155       131.3917        78.5200        74.7713       0.268196         3.6007         2.4507         7.8587         8.6301         7.4351
    3239.56680         8.7001       0.004681       287.5252       129.8882        76.4800        70.7520       0.280186         3.9199         2.4782         9.4311        10.4384         8.8361
    3239.71920         8.7169       0.004267       287.5252       129.8882        76.4800        66.3924       0.293304         4.2919         2.5216        11.3775        12.5556        10.5464
    3239.87160         8.7191      -0.001659       286.6012       132.4417        73.8500        65.8197       0.323169         4.2901         2.5017        13.0107        14.3315        11.9733
    3240.02400         8.6863      -0.005376       284.5629       172.5769        72.9500        65.0815       0.286088         3.8402         2.4268        14.5619        16.3172        13.3235
    3240.17640         8.6880      -0.002119       284.5629       172.5769        72.9500        62.6812       0.238857         3.4879         2.4169        14.3868        16.3709        13.2233
    3240.32880         8.7497       0.002235       283.2667       164.5031        71.9600        63.8236       0.242509         3.3900         2.4777        13.2964        15.1521        12.3357
    3240.48120         8.7894       0.006077       283.0172       165.1025        71.8200        64.8640       0.232003         3.3249         2.5152        12.2483        13.9109        11.4614
    3240.63360         8.7894       0.014937       284.0005       129.6895        72.4800        67.1657       0.221319         3.3068         2.5480        12.0700        13.7945        11.3345
    3240.78600         8.7384       0.022149       283.7500       139.7917        72.6000        75.8782       0.239954         3.3952         2.6079        13.4785        15.7910        12.5992
    3240.93840         8.7351       0.018456       282.8219       133.9497        72.7700        83.8147       0.258923         3.4943         2.6327        15.3817        18.5008        14.2829
    3241.09080         8.7351       0.013767       283.1486       141.6155        73.7000        82.8602       0.257635         3.5548         2.5931        15.2447        18.2465        14.1953
    3241.24320         8.8443       0.024348       284.0343       152.5299        75.8800        81.3745       0.255965         3.7020         2.5397        13.8120        16.2445        12.9654
    3241.39560         8.8520       0.035433       284.0343       152.5299        75.8800        86.6471       0.257147         3.8461         2.5261        13.0651        15.3063        12.3206
    3241.54800         8.8352       0.024168       285.1548       160.2960        78.0200        93.9137       0.263343         3.6819         2.5376        13.4075        15.7722        12.6423
    3241.70040         8.7635       0.008663       285.4552       163.4850        78.6300       103.2207       0.317141         3.2970         2.5501        14.0872        16.4781        13.2707
    3241.85280         8.7621       0.007010       284.7248       165.7447        79.9900       112.2869       0.366804         3.0608         2.5672        14.8758        17.1124        14.0068
    3242.00520         8.7424       0.010254       286.1695       169.6721        83.9200       113.4208       0.354475         3.0153         2.5773        15.8883        17.9119        14.9553
    3242.15760         8.7387       0.010690       286.1695       169.6721        83.9200       108.2051       0.430046         3.0125         2.5788        17.4314        19.2641        16.3912
    3242.31000         8.7297       0.007872       286.7819       170.3915        87.3700       102.1673       0.483313         3.0083         2.5675        19.2547        20.7326        18.0909
    3242.46240         8.7322       0.003747       287.4717       166.7769        90.3100       101.0042       0.473187         2.9637         2.5147        20.8138        21.7302        19.5694
    3242.61480         8.7730       0.000337       289.6486       162.9971        90.2800        98.4682       0.476348         2.9325         2.4445        22.5658        23.0622        21.2108
    3242.76720         8.7769      -0.002734       290.1241       157.2896        90.3300        87.8279       0.489595         3.0035         2.4283        24.5726        24.8733        23.0482
    3242.91960         8.7748      -0.004269       289.9805       155.0911        89.3500        75.7928       0.445280         3.0487         2.4660        25.8985        26.0039        24.2183
    3243.07200         8.7642      -0.002920       289.9805       155.0911        89.3500        73.5152       0.400809         2.9536         2.4818        27.2683        27.2234        25.3321
    3243.22440         8.7669      -0.003429       288.9729       153.4923        86.1500        88.2212       0.399402         2.8575         2.4035        29.9542        30.2183        27.4349
    3243.37680         8.7476      -0.005051       288.5488       153.7312        84.2100       106.2841       0.454677         2.8402         2.2833        32.5695        33.8638        29.2533
    3243.52920         8.7316      -0.003267       285.7733       155.1554        80.4100       116.5292       0.480876         2.7966         2.2256        32.8350        35.3354        29.0006
    3243.68160         8.7342      -0.000120       285.1767       158.3215        80.1500       123.2194       0.359234         2.8203         2.2697        32.2141        35.5187        28.0222
    3243.83400         8.7933       0.003807       285.1767       158.3215        80.1500       129.2931       0.269047         3.0590         2.3893        29.6293        32.8391        25.6076
    3243.98640         8.7874       0.009639       285.3438       162.3903        81.1900       132.3855       0.296929         3.2278         2.4792        24.7275        26.8390        21.5762
    3244.13880         8.6909       0.015816       288.0567       163.9251        85.3300       129.1750       0.280949         3.1135         2.5334        18.4459        19.3249        16.4981
    3244.29120         8.7026       0.017339       288.0567       163.9251        85.3300       122.6735       0.275310         2.9883         2.5868        13.8262        14.2431        12.6442
    3244.44360         8.7019       0.012793       291.4448       164.2291        86.9900       116.5332       0.280680         3.0162         2.6097        11.4973        11.8965        10.6457
    3244.59600         8.7151       0.006832       296.5024       150.4862        67.5200       100.9735       0.305955         3.0979         2.6101        10.1852        10.6637         9.5073
    3244.74840         8.7181       0.003654       294.1571       142.5082        65.3100        67.2445       0.340056         3.2106         2.6042         9.8573        10.4192         9.2302
    3244.90080         8.7154       0.002235       294.1571       142.5082        65.3100        38.1665       0.342903         3.6588         2.6279        10.3656        11.0104         9.6969
    3245.05320         8.6642      -0.003991       292.8107       132.8596        63.8300        27.2482       0.343601         4.8764         2.6848        11.2534        11.9515        10.5063
    3245.20560         8.6611      -0.017033       291.0321       125.2114        63.0100        24.7746       0.327385         5.9582         2.6618        11.8979        12.6026        11.1124
    3245.35800         8.6572      -0.030835       291.0321       125.2114        63.0100        25.1052       0.319502         5.4085         2.4929        12.6173        13.3520        11.7894
    3245.51040         8.7462      -0.035330       289.2455       119.8685        66.1900        25.3708       0.324168         4.0109         2.2965        13.8044        14.6984        12.8723
    3245.66280         8.7661      -0.031858       287.4190       115.0077        66.6500        25.7171       0.360587         3.3679         2.1214        16.4325        17.8718        15.1813
