~Version Information Block
VERS .                  2.0:  CWLS LOG ASCII STANDARD - VERSION 2.0
WRAP .                   NO:  One line per depth step
~Well Information Block
#MNEM.UNIT        Data Type   Information
#---------- ----------------  -----------
STRT .M          3064.61160:  START DEPTH
STOP .M          3593.28720:  STOP DEPTH
STEP .M             0.15240:  STEP
NULL .              -999.25:  NULL VALUE
COMP .                     :  COMPANY
WELL .          NO_31/1-3_S:  WELL
FLD  .                     :  FIELD
LOC  .                     :  LOCATION
CTRY .                     :  COUNTRY
STAT .                     :  STATE
CNTY .                     :  COUNTY
SRVC .                     :  SERVICE COMPANY
DATE .                     :  DATE
API  .                     :  API NUMBER
UWI  .                     :  UNIQUE WELL ID
~Curve Information Block
#MNEM.UNIT         API CODE   Curve Description
#---------- ----------------  -----------------
DEPTH.M                    :  Loaded from /private/inp/roever_soer_wells.unl.
LFP_K.%                    :  Potassium
LFP_TH.PPM                  :  Thorium
LFP_U.PPM                  :  Uranium
~Parameter Information Block
#MNEM.UNIT            Value   Description
#---------- ----------------  -----------
PROJECT.     LFP@st-vlinapp01:  
SET  .                  LFP:  
~Other Information Block
# 
~A       DEPTH          LFP_K         LFP_TH          LFP_U 
# ...
    3309.67080         1.6078         3.3975         0.7764
    3309.82320         1.5647         3.5034         0.8023
    3309.97560         1.4920         3.3990         0.8602
    3310.12800         1.4125         2.9851         0.9929
    3310.28040         1.3515         2.5539         1.0538
    3310.43280         1.3237         2.1547         1.0520
    3310.58520         1.3446         1.8596         0.9656
    3310.73760         1.3801         1.7119         0.8404
    3310.89000         1.3999         1.6993         0.7491
    3311.04240         1.4116         1.6914         0.7192
    3311.19480         1.3985         1.7930         0.7319
    3311.34720         1.3891         1.8715         0.7684
    3311.49960         1.3896         1.8131         0.8427
    3311.65200         1.4100         1.7133         0.8300
    3311.80440         1.4063         1.7014         0.8382
    3311.95680         1.4070         1.7031         0.8372
    3312.10920         1.3682         1.8969         0.9072
    3312.26160         1.3181         2.0647         1.0672
    3312.41400         1.2954         2.1125         1.2516
    3312.56640         1.3100         2.0885         1.3545
    3312.71880         1.3279         2.1295         1.3778
    3312.87120         1.4388         2.3212         1.2800
    3313.02360         1.6264         2.8624         1.2281
    3313.17600         1.9062         3.5108         1.1915
    3313.32840         2.1582         3.9843         1.2711
    3313.48080         2.3061         4.0940         1.3449
    3313.63320         2.2789         3.6915         1.4075
    3313.78560         2.1169         3.0116         1.3887
    3313.93800         1.8921         2.4198         1.3520
    3314.09040         1.7802         2.3785         1.4323
    3314.24280         1.8638         3.1401         1.7611
    3314.39520         2.1350         4.7142         2.3090
    3314.54760         2.5372         6.9275         2.9249
    3314.70000         3.0178         9.3431         3.2833
    3314.85240         3.4336        11.1140         3.4729
    3315.00480         3.7683        12.1580         3.4658
    3315.15720         3.9276        12.2253         3.5360
    3315.30960         3.9505        12.1096         3.6750
    3315.46200         3.9234        12.0884         3.8504
    3315.61440         3.8362        12.1791         3.9789
    3315.76680         3.7179        12.2527         4.0511
    3315.91920         3.6019        11.8105         3.9830
    3316.07160         3.3706        10.4748         3.9306
    3316.22400         3.0721         8.9129         3.6958
    3316.37640         2.7125         7.2723         3.2248
    3316.52880         2.3353         6.0028         2.6962
    3316.68120         2.0482         5.0981         2.2363
    3316.83360         1.9116         4.4906         1.9275
    3316.98600         1.9630         4.3245         1.7788
    3317.13840         2.2306         4.9268         1.6676
    3317.29080         2.6288         6.1611         1.6595
    3317.44320         3.1093         8.1586         1.6623
    3317.59560         3.5675        10.4434         1.7856
    3317.74800         3.8749        12.3968         2.1485
    3317.90040         4.0238        13.8641         2.4464
    3318.05280         3.9702        14.3429         2.8207
    3318.20520         3.7392        13.9497         3.0399
    3318.35760         3.4091        12.9794         3.0944
    3318.51000         3.0206        11.6371         3.1090
    3318.66240         2.7013        10.6309         2.9237
    3318.81480         2.4868         9.7554         2.8592
    3318.96720         2.3705         9.2666         2.9037
    3319.11960         2.3898         9.2278         2.7914
    3319.27200         2.4789         9.1670         2.7663
    3319.42440         2.5777         9.2662         2.7749
    3319.57680         2.6847         9.6077         2.8582
    3319.72920         2.8069         9.7723         3.2171
    3319.88160         2.9621        10.1314         3.6314
    3320.03400         3.1525        10.5832         3.9186
    3320.18640         3.3328        11.1158         3.9663
    3320.33880         3.4845        11.8745         3.5650
    3320.49120         3.5733        12.5440         2.9641
    3320.64360         3.5491        12.7251         2.5653
    3320.79600         3.4210        12.4746         2.5161
    3320.94840         3.3038        11.5505         2.8342
    3321.10080         3.2277        10.8885         3.1624
    3321.25320         3.2489        10.3986         3.3188
    3321.40560         3.2896        10.3523         3.0423
    3321.55800         3.2548        10.2288         2.6418
    3321.71040         3.0659         9.5689         2.2709
    3321.86280         2.6978         8.4492         1.9813
    3322.01520         2.2436         7.0989         1.8244
    3322.16760         1.8574         5.4943         1.6289
    3322.32000         1.6085         4.3493         1.2479
    3322.47240         1.5106         3.3790         0.9344
    3322.62480         1.4947         2.8013         0.5988
    3322.77720         1.4848         2.6374         0.4450
    3322.92960         1.4710         2.6460         0.4161
    3323.08200         1.4549         2.7419         0.5416
    3323.23440         1.4790         3.2070         0.6457
    3323.38680         1.5627         3.8367         0.6929
    3323.53920         1.6729         4.6359         0.8680
    3323.69160         1.7942         5.5480         1.0195
    3323.84400         1.8841         6.0013         1.3564
    3323.99640         1.9576         6.3454         1.6960
    3324.14880         2.0531         6.4652         1.9135
    3324.30120         2.1395         6.4927         2.0904
    3324.45360         2.2692         6.6675         2.0697
    3324.60600         2.4132         6.9459         1.9576
    3324.75840         2.5299         7.0804         2.0067
    3324.91080         2.6381         7.1589         2.0681
    3325.06320         2.6967         7.2930         2.2312
    3325.21560         2.7023         7.7288         2.3785
    3325.36800         2.7320         8.4219         2.3595
    3325.52040         2.6804         9.0999         2.3031
    3325.67280         2.5856         9.3159         2.1759
    3325.82520         2.4559         8.9406         1.9838
    3325.97760         2.2605         7.9457         1.9350
    3326.13000         2.0244         6.9028         1.9498
    3326.28240         1.8197         6.1585         1.9067
    3326.43480         1.6141         5.7507         1.8255
    3326.58720         1.4964         5.5590         1.6138
    3326.73960         1.4458         5.2756         1.3042
    3326.89200         1.4453         4.8067         1.0310
    3327.04440         1.4862         4.2774         0.7875
    3327.19680         1.5209         3.7673         0.6804
    3327.34920         1.5338         3.3875         0.6687
    3327.50160         1.5460         3.2150         0.6490
    3327.65400         1.5634         3.2190         0.5973
    3327.80640         1.6116         3.2155         0.5098
    3327.95880         1.6675         3.2589         0.3953
    3328.11120         1.7140         3.3660         0.4423
    3328.26360         1.7889         3.6845         0.5942
    3328.41600         1.8889         4.0804         0.9361
    3328.56840         2.0542         4.6584         1.2900
    3328.72080         2.2839         5.3772         1.5050
    3328.87320         2.5065         6.2113         1.6649
    3329.02560         2.7218         7.1406         1.7250
    3329.17800         2.8902         8.2677         1.7300
    3329.33040         2.9697         9.1462         1.9842
    3329.48280         3.0402        10.0540         2.2158
    3329.63520         3.1021        10.6222         2.5128
    3329.78760         3.1383        11.0224         2.8068
    3329.94000         3.1713        11.4076         2.9889
