~Version Information Block
VERS .                  2.0:  CWLS LOG ASCII STANDARD - VERSION 2.0
WRAP .                   NO:  One line per depth step
~Well Information Block
#MNEM.UNIT        Data Type   Information
#---------- ----------------  -----------
STRT .M          3064.61160:  START DEPTH
STOP .M          3593.28720:  STOP DEPTH
STEP .M             0.15240:  STEP
NULL .              -999.25:  NULL VALUE
COMP .                     :  COMPANY
WELL .          NO_31/1-3_S:  WELL
FLD  .                     :  FIELD
LOC  .                     :  LOCATION
CTRY .                     :  COUNTRY
STAT .                     :  STATE
CNTY .                     :  COUNTY
SRVC .                     :  SERVICE COMPANY
DATE .                     :  DATE
API  .                     :  API NUMBER
UWI  .                     :  UNIQUE WELL ID
~Curve Information Block
#MNEM.UNIT         API CODE   Curve Description
#---------- ----------------  -----------------
DEPTH.M                    :  Loaded from /private/inp/roever_soer_wells.unl.
LFP_K.%                    :  Potassium
LFP_TH.PPM                  :  Thorium
LFP_U.PPM                  :  Uranium
~Parameter Information Block
#MNEM.UNIT            Value   Description
#---------- ----------------  -----------
PROJECT.     LFP@st-vlinapp01:  
SET  .                  LFP:  
~Other Information Block
# 
~A       DEPTH          LFP_K         LFP_TH          LFP_U 
# ...
    3513.88680         2.5123         6.3075         2.2308
    3514.03920         2.5171         5.9871         2.3112
    3514.19160         2.5557         5.8065         2.4404
    3514.34400         2.5933         5.7342         2.6418
    3514.49640         2.6394         6.1978         2.5766
    3514.64880         2.6429         6.8963         2.4681
    3514.80120         2.6476         7.5790         2.2778
    3514.95360         2.6768         8.1176         2.0479
    3515.10600         2.6996         8.1438         2.0513
    3515.25840         2.7170         8.0152         2.1351
    3515.41080         2.7127         7.8200         2.2806
    3515.56320         2.6501         7.6451         2.5345
    3515.71560         2.6016         7.7241         2.5670
    3515.86800         2.5456         7.7675         2.6114
    3516.02040         2.5126         7.6674         2.6410
    3516.17280         2.5193         7.5247         2.5735
    3516.32520         2.5284         7.4082         2.4998
    3516.47760         2.5377         7.3885         2.4154
    3516.63000         2.5680         7.4206         2.2353
    3516.78240         2.5632         7.2355         2.2007
    3516.93480         2.5866         6.8468         2.1231
    3517.08720         2.6484         6.6132         1.8833
    3517.23960         2.6954         6.5306         1.6292
    3517.39200         2.7657         6.4259         1.3971
    3517.54440         2.7980         6.5619         1.2409
    3517.69680         2.7800         6.4926         1.3574
    3517.84920         2.7339         6.4638         1.5581
    3518.00160         2.6519         6.5969         1.8555
    3518.15400         2.6117         6.7113         2.0580
    3518.30640         2.6108         6.9917         2.0919
    3518.45880         2.6151         7.0442         2.2626
    3518.61120         2.6289         6.6927         2.5516
    3518.76360         2.5948         6.4440         2.9305
    3518.91600         2.5615         6.2434         3.2700
    3519.06840         2.4883         6.1091         3.5306
    3519.22080         2.4429         6.2719         3.5185
    3519.37320         2.5043         6.5985         3.1406
    3519.52560         2.5973         6.9368         2.6855
    3519.67800         2.7053         7.3306         2.3439
    3519.83040         2.7960         7.7564         2.2219
    3519.98280         2.8189         7.9789         2.4547
    3520.13520         2.8086         8.2106         2.7245
    3520.28760         2.7880         8.1409         3.0609
    3520.44000         2.7429         7.7462         3.4903
    3520.59240         2.7021         7.6055         3.7501
    3520.74480         2.6670         7.6202         3.9501
    3520.89720         2.6371         7.7071         4.0703
    3521.04960         2.6119         8.0459         3.9751
    3521.20200         2.5879         8.0424         3.8539
    3521.35440         2.5645         7.6252         3.7497
    3521.50680         2.5466         7.3418         3.5612
    3521.65920         2.5538         7.0676         3.4334
    3521.81160         2.6211         7.1175         3.1844
    3521.96400         2.7474         7.5311         2.8756
    3522.11640         2.8835         7.7787         2.7314
    3522.26880         3.0088         8.1612         2.6619
    3522.42120         3.0666         8.2596         2.7871
    3522.57360         3.0600         7.9965         3.0928
    3522.72600         3.0009         7.9605         3.3748
    3522.87840         2.9263         7.7703         3.6834
    3523.03080         2.8567         7.9753         3.8579
    3523.18320         2.8430         8.8498         3.7031
    3523.33560         2.8424         9.6438         3.4906
    3523.48800         2.8808        10.5797         3.1277
    3523.64040         2.9026        10.9965         2.9245
    3523.79280         2.9254        10.7591         2.9308
    3523.94520         2.9395        10.4228         3.0856
    3524.09760         2.9408         9.9689         3.3928
    3524.25000         2.9773         9.4617         3.6477
    3524.40240         3.0294         9.2071         3.7239
    3524.55480         3.0753         8.9489         3.7448
    3524.70720         3.1298         8.6432         3.6019
    3524.85960         3.1376         8.4088         3.4655
    3525.01200         3.1132         8.2381         3.4137
    3525.16440         3.0783         8.2801         3.3519
    3525.31680         3.0349         8.5690         3.2960
    3525.46920         3.0388         8.9337         3.2012
    3525.62160         3.0256         9.1672         3.2075
    3525.77400         3.0329         9.1927         3.2450
    3525.92640         3.0239         8.7180         3.4620
    3526.07880         2.9743         8.2441         3.6424
    3526.23120         2.9196         8.0251         3.6488
    3526.38360         2.8662         8.2651         3.4157
    3526.53600         2.7864         8.6480         3.1613
    3526.68840         2.7496         9.0137         2.8116
    3526.84080         2.7431         8.8231         2.5087
    3526.99320         2.7382         8.2576         2.3065
    3527.14560         2.7410         7.4985         2.2064
    3527.29800         2.7363         7.1603         2.1083
    3527.45040         2.7220         7.2147         2.1157
    3527.60280         2.7832         7.7376         2.0047
    3527.75520         2.8503         8.1649         2.0083
    3527.90760         2.8998         8.1910         2.1372
    3528.06000         2.9598         7.9989         2.2122
    3528.21240         2.9972         7.7193         2.2920
    3528.36480         2.9728         7.4883         2.4119
    3528.51720         2.9603         7.5620         2.3947
    3528.66960         2.9404         7.5398         2.3584
    3528.82200         2.9091         7.3445         2.4645
    3528.97440         2.8642         7.1415         2.6954
    3529.12680         2.8432         6.7826         2.9002
    3529.27920         2.7854         6.4803         3.0753
    3529.43160         2.7409         6.2089         3.1045
    3529.58400         2.6875         5.9065         3.0603
    3529.73640         2.6026         5.8440         3.0565
    3529.88880         2.5972         6.1744         2.8868
    3530.04120         2.6551         6.5999         2.7594
    3530.19360         2.7271         7.0487         2.7608
    3530.34600         2.7985         7.5149         2.7566
    3530.49840         2.7883         7.8312         2.8878
    3530.65080         2.6764         8.2472         3.0966
    3530.80320         2.4999         8.5984         3.3594
    3530.95560         2.2899         9.0123         3.6320
    3531.10800         2.1714         9.3589         3.7351
    3531.26040         2.1427         9.6774         3.6602
    3531.41280         2.1757         9.9780         3.4124
    3531.56520         2.2101        10.2162         3.1556
    3531.71760         2.2363        10.4245         2.8941
    3531.87000         2.1686        10.5454         2.8302
    3532.02240         2.0787        10.6431         2.8717
    3532.17480         1.9926        10.7041         2.9580
    3532.32720         1.9322        10.3659         3.1618
    3532.47960         1.9380         9.9606         3.3067
    3532.63200         2.0120         9.6202         3.3105
    3532.78440         2.0999         9.1963         3.3436
    3532.93680         2.2628         9.0991         3.1834
    3533.08920         2.4397         9.1443         3.0050
    3533.24160         2.5962         9.3178         2.8097
    3533.39400         2.7625         9.5862         2.5398
    3533.54640         2.8517         9.7908         2.3722
    3533.69880         2.8898         9.8098         2.2476
    3533.85120         2.9279         9.7958         2.1239
    3534.00360         2.9176         9.4058         2.2511
    3534.15600         2.9091         9.0868         2.3083
