~Version Information Block
VERS .                  2.0:  CWLS LOG ASCII STANDARD - VERSION 2.0
WRAP .                   NO:  One line per depth step
~Well Information Block
#MNEM.UNIT        Data Type   Information
#---------- ----------------  -----------
STRT .M           455.06640:  START DEPTH
STOP .M          3604.71720:  STOP DEPTH
STEP .M             0.15240:  STEP
NULL .              -999.25:  NULL VALUE
COMP .                     :  COMPANY
WELL .          NO_31/1-3_S:  WELL
FLD  .                     :  FIELD
LOC  .                     :  LOCATION
CTRY .                     :  COUNTRY
STAT .                     :  STATE
CNTY .                     :  COUNTY
SRVC .                     :  SERVICE COMPANY
DATE .                     :  DATE
API  .                     :  API NUMBER
UWI  .                     :  UNIQUE WELL ID
~Curve Information Block
#MNEM.UNIT         API CODE   Curve Description
#---------- ----------------  -----------------
DEPTH.M                    :  Loaded from /private/inp/roever_soer_wells.unl.
LFP_CALI.INCHES                 :  Caliper
LFP_DRHO.G/CM3                 :  Density Correction
LFP_DTST_LOG.US/FT                 :  DT Stonely
LFP_DTS_LOG.US/FT                 :  Shear slowness
LFP_DT_LOG.US/FT                 :  Compressional slowness
LFP_GR.API                  :  Gamma Ray (LFP_GR_1 Edited)
LFP_NPHI.V/V                  :  Neutron
LFP_PEF.B/E                  :  Photoelectric Factor
LFP_RHOB_LOG.G/CM3                 :  Density
LFP_RM.OHMM                 :  Medium Resistivity
LFP_RS.OHMM                 :  Shallow Resistivity
LFP_RT_LOG.OHMM                 :  Deep Resistivity
~Parameter Information Block
#MNEM.UNIT            Value   Description
#---------- ----------------  -----------
PROJECT.     LFP@st-vlinapp01:  
SET  .                  LFP:  
~Other Information Block
# 
~A       DEPTH       LFP_CALI       LFP_DRHO   LFP_DTST_LOG    LFP_DTS_LOG     LFP_DT_LOG         LFP_GR       LFP_NPHI        LFP_PEF   LFP_RHOB_LOG         LFP_RM         LFP_RS     LFP_RT_LOG 
# ...
    2746.55280        12.2196       0.043880      -999.2500       258.7148       124.8714       106.6862       0.427325         6.2851         2.4399         0.9684         0.9517         0.9874
    2746.70520        12.1933       0.036643      -999.2500       259.1968       125.3816       106.4398       0.455269         6.2044         2.4222         0.8990         0.9817         0.8739
    2746.85760        12.1817       0.014084      -999.2500       259.2223       125.8324       105.0711       0.396648         6.0263         2.4059         0.7731         0.8573         0.7865
    2747.01000        12.1977       0.036489      -999.2500       256.3469       126.4752       103.4006       0.368262         6.0873         2.4331         0.7642         0.8209         0.7992
    2747.16240        12.2466       0.045956      -999.2500       253.9439       126.6693       102.7813       0.399367         5.9293         2.4142         0.9171         0.9054         0.9579
    2747.31480        12.1925       0.018174      -999.2500       252.2731       126.6942       113.2563       0.391839         5.9563         2.3755         1.0059         1.0376         1.0420
    2747.46720        12.2070       0.033453      -999.2500       251.8264       126.6783       108.1776       0.409308         5.8865         2.3701         1.0272         1.1121         1.0398
    2747.61960        12.1968       0.007346      -999.2500       254.5429       126.3075       115.0735       0.428198         5.9374         2.3458         0.9513         1.0826         0.9619
    2747.77200        12.2387       0.001565      -999.2500       257.9084       126.3875       114.2150       0.428327         5.8870         2.3622         0.9186         0.9795         0.9507
    2747.92440        12.2467       0.028193      -999.2500       261.3597       126.4727       127.2827       0.428385         5.7798         2.3885         0.9512         0.9629         0.9797
    2748.07680        12.2466       0.025124      -999.2500       267.1985       126.5890       115.1568       0.400041         5.5671         2.3875         0.9805         0.9814         1.0155
    2748.22920        12.1917       0.008726      -999.2500       269.6678       126.5979       106.6085       0.428835         5.7260         2.3549         0.9529         0.9973         0.9837
    2748.38160        12.1970       0.008719      -999.2500       270.3239       125.8201       113.4570       0.428464         5.7030         2.3521         0.8854         0.9480         0.9337
    2748.53400        12.2265       0.013575      -999.2500       269.7820       124.6468       112.1105       0.400955         5.5596         2.3735         0.8876         0.9339         0.9239
    2748.68640        12.2148       0.017879      -999.2500       269.2569       124.3033       110.2385       0.355432         5.7731         2.4011         0.8627         0.9262         0.8832
    2748.83880        12.1866       0.012586      -999.2500       263.3475       123.7743       121.9564       0.355741         5.7024         2.4146         0.8336         0.8933         0.8598
    2748.99120        12.2328       0.018333      -999.2500       254.1240       122.8002       126.6033       0.363211         5.6149         2.4318         0.8243         0.8784         0.8546
    2749.14360        12.2063       0.014401      -999.2500       232.9682       120.3089       107.3031       0.386395         5.5766         2.4155         0.8470         0.8863         0.8924
    2749.29600        12.1818       0.009782      -999.2500       231.9706       119.2269       109.2078       0.403232         5.4795         2.4018         0.8876         0.9277         0.9250
    2749.44840        12.2276       0.032017      -999.2500       238.8044       118.1800       107.9949       0.387096         5.7559         2.4665         0.9163         0.9558         0.9474
    2749.60080        12.2186       0.031750      -999.2500       249.8405       118.9843        97.0735       0.370959         5.6153         2.4899         0.9354         1.0092         0.9515
    2749.75320        12.1888       0.031753      -999.2500       260.1165       120.2976        94.8896       0.383044         5.3877         2.4808         0.9358         1.0105         0.9502
    2749.90560        12.2313       0.035523      -999.2500       262.8410       122.6193       106.3818       0.407065         5.6801         2.4265         0.9347         1.0093         0.9471
    2750.05800        12.2324       0.026229      -999.2500       263.0597       124.1433        86.2860       0.401878         6.0237         2.3766         0.9128         0.9772         0.9360
    2750.21040        12.2168       0.025669      -999.2500       263.3880       124.8927        81.6252       0.424436         5.8532         2.3701         0.9617         0.9957         0.9767
    2750.36280        12.1930       0.024102      -999.2500       264.9742       123.5778        82.3663       0.456564         5.4373         2.3702         0.9548         1.0022         0.9650
    2750.51520        12.2183       0.033282      -999.2500       264.6314       122.8993        94.8684       0.412024         5.8857         2.3989         0.9116         0.9787         0.9393
    2750.66760        12.2158       0.035517      -999.2500       257.4230       122.0636       102.4332       0.394585         6.0474         2.4072         0.9084         0.9677         0.9441
    2750.82000        12.2015       0.024458      -999.2500       251.6440       121.5511        99.8248       0.381146         5.9528         2.4069         0.9205         0.9691         0.9482
    2750.97240        12.1945       0.031507      -999.2500       245.6685       120.4450        96.5615       0.375794         5.9642         2.4363         0.9087         0.9625         0.9378
    2751.12480        12.2316       0.031922      -999.2500       242.5189       119.7953        96.1584       0.368509         6.0505         2.4445         0.9172         0.9656         0.9404
    2751.27720        12.2467       0.038407      -999.2500       242.4649       119.8177       101.6659       0.355227         6.2161         2.4367         0.9251         0.9711         0.9438
    2751.42960        12.2468       0.033584      -999.2500       244.4311       120.1944        94.7444       0.371579         5.9007         2.4514         0.9235         0.9738         0.9552
    2751.58200        12.2468       0.026860      -999.2500       243.2696       119.2366        98.9894       0.394640         5.4156         2.4448         0.9477         0.9889         0.9795
    2751.73440        12.2103       0.034526      -999.2500       243.5982       118.4846       100.5146       0.373077         5.4744         2.4441         0.9999         1.0285         1.0273
    2751.88680        12.1964       0.034723      -999.2500       247.9387       118.2203        98.6740       0.370184         5.6128         2.4428         0.9410         1.0286         0.9489
    2752.03920        12.2340       0.013128      -999.2500       250.7604       118.3744        82.3693       0.374505         5.5724         2.4360         0.9466         0.9963         0.9655
    2752.19160        12.2304       0.019448      -999.2500       252.6637       119.4368        91.7988       0.368726         5.3828         2.4325         1.0031         1.0097         1.0338
    2752.34400        12.2433       0.021788      -999.2500       255.5744       121.6704        94.3239       0.373652         5.2834         2.3878         1.0613         1.0903         1.0869
    2752.49640        12.1952       0.028230      -999.2500       255.5616       122.2839        84.7447       0.367861         5.5630         2.3962         1.0072         1.0893         1.0412
    2752.64880        12.1819       0.022243      -999.2500       253.2950       122.2791        88.7861       0.376685         5.4883         2.3809         1.0185         1.0903         1.0477
    2752.80120        12.1819       0.019321      -999.2500       252.3923       122.2766        89.7772       0.382369         5.4533         2.3742         1.0347         1.0797         1.0340
