~Version Information Block
VERS .                  2.0:  CWLS LOG ASCII STANDARD - VERSION 2.0
WRAP .                   NO:  One line per depth step
~Well Information Block
#MNEM.UNIT        Data Type   Information
#---------- ----------------  -----------
STRT .M          3064.61160:  START DEPTH
STOP .M          3593.28720:  STOP DEPTH
STEP .M             0.15240:  STEP
NULL .              -999.25:  NULL VALUE
COMP .                     :  COMPANY
WELL .          NO_31/1-3_S:  WELL
FLD  .                     :  FIELD
LOC  .                     :  LOCATION
CTRY .                     :  COUNTRY
STAT .                     :  STATE
CNTY .                     :  COUNTY
SRVC .                     :  SERVICE COMPANY
DATE .                     :  DATE
API  .                     :  API NUMBER
UWI  .                     :  UNIQUE WELL ID
~Curve Information Block
#MNEM.UNIT         API CODE   Curve Description
#---------- ----------------  -----------------
DEPTH.M                    :  Loaded from /private/inp/roever_soer_wells.unl.
LFP_K.%                    :  Potassium
LFP_TH.PPM                  :  Thorium
LFP_U.PPM                  :  Uranium
~Parameter Information Block
#MNEM.UNIT            Value   Description
#---------- ----------------  -----------
PROJECT.     LFP@st-vlinapp01:  
SET  .                  LFP:  
~Other Information Block
# 
~A       DEPTH          LFP_K         LFP_TH          LFP_U 
# ...
    3125.87640         2.9794         9.4505         3.0428
    3126.02880         3.0105         9.2907         3.0140
    3126.18120         3.0339         9.4322         2.9392
    3126.33360         3.0351         9.7172         2.9443
    3126.48600         3.0453        10.1045         2.9473
    3126.63840         3.0478        10.3386         3.0696
    3126.79080         3.0454        10.2356         3.2572
    3126.94320         3.0473        10.0327         3.4231
    3127.09560         3.0491        10.1261         3.3501
    3127.24800         3.0334        10.2601         3.2092
    3127.40040         3.0230        10.2640         3.0534
    3127.55280         3.0120        10.1957         2.8903
    3127.70520         3.0296         9.7961         2.8042
    3127.85760         3.0372         9.4562         2.7487
    3128.01000         3.0198         9.2762         2.7152
    3128.16240         3.0343         9.3696         2.5840
    3128.31480         3.0461         9.7522         2.4402
    3128.46720         3.0998        10.1160         2.3206
    3128.61960         3.1735        10.4732         2.2617
    3128.77200         3.2496        10.7159         2.2606
    3128.92440         3.3227        10.5526         2.3179
    3129.07680         3.3746        10.3684         2.3454
    3129.22920         3.3899         9.9792         2.4362
    3129.38160         3.3912         9.7933         2.4243
    3129.53400         3.3373         9.7870         2.5044
    3129.68640         3.2160         9.6213         2.8493
    3129.83880         3.0316         9.3997         3.3762
    3129.99120         2.8945         9.1394         3.8248
    3130.14360         2.8287         8.9343         4.0867
    3130.29600         2.8377         8.8917         4.1298
    3130.44840         2.9045         9.0835         3.9694
    3130.60080         2.9742         9.4620         3.7961
    3130.75320         2.9954         9.6783         3.7482
    3130.90560         3.0324         9.6967         3.7606
    3131.05800         3.0888         9.6195         3.6933
    3131.21040         3.1464         9.6465         3.5252
    3131.36280         3.2420         9.5125         3.3370
    3131.51520         3.3201         9.3384         3.1920
    3131.66760         3.3257         9.3421         3.2271
    3131.82000         3.3105         9.3962         3.3983
    3131.97240         3.2789         9.7173         3.4776
    3132.12480         3.2064        10.2716         3.6410
    3132.27720         3.1483        10.6886         3.7918
    3132.42960         3.0989        11.1194         3.8174
    3132.58200         3.0926        11.4791         3.8023
    3132.73440         3.1258        11.9177         3.5875
    3132.88680         3.1929        12.2718         3.2956
    3133.03920         3.2377        12.6316         3.1246
    3133.19160         3.2607        13.0303         3.0827
    3133.34400         3.2406        13.3531         3.3312
    3133.49640         3.2344        13.7481         3.7482
    3133.64880         3.1719        13.9906         4.2359
    3133.80120         3.0944        13.7723         4.6453
    3133.95360         2.9644        13.3418         4.8661
    3134.10600         2.7853        12.5446         4.9839
    3134.25840         2.6122        11.4877         5.0221
    3134.41080         2.4989        10.8122         4.9145
    3134.56320         2.4637        10.4607         4.7260
    3134.71560         2.5309        10.4372         4.3857
    3134.86800         2.6092        10.5683         4.0020
    3135.02040         2.6472        10.5064         3.6790
    3135.17280         2.5988         9.8333         3.5231
    3135.32520         2.4793         8.9093         3.4311
    3135.47760         2.3403         8.0060         3.4186
    3135.63000         2.2137         7.6257         3.4403
    3135.78240         2.1753         7.8332         3.5147
    3135.93480         2.2040         8.2411         3.6929
    3136.08720         2.2869         8.7138         3.7985
    3136.23960         2.4007         9.1879         3.8733
    3136.39200         2.5214         9.9268         3.8003
    3136.54440         2.6595        10.9126         3.4977
    3136.69680         2.7487        11.8580         3.2222
    3136.84920         2.7483        12.3580         3.0787
    3137.00160         2.7140        12.0007         2.9646
    3137.15400         2.6260        11.0976         3.0533
    3137.30640         2.5801        10.1884         3.1712
    3137.45880         2.5915         9.4589         3.3128
    3137.61120         2.6264         8.9506         3.4734
    3137.76360         2.6694         8.3712         3.5783
    3137.91600         2.6506         7.8600         3.5065
    3138.06840         2.5371         7.4814         3.2956
    3138.22080         2.4299         7.3267         2.8634
    3138.37320         2.3266         7.2879         2.3650
    3138.52560         2.2340         7.3382         1.9205
    3138.67800         2.1516         7.2413         1.6732
    3138.83040         2.1254         7.0847         1.5873
    3138.98280         2.1531         7.0414         1.6324
    3139.13520         2.2706         7.2130         1.7057
    3139.28760         2.4565         7.5060         1.7390
    3139.44000         2.6123         7.6639         1.8807
    3139.59240         2.7210         7.6205         2.1046
    3139.74480         2.7184         7.4311         2.5188
    3139.89720         2.6453         7.0953         3.0228
    3140.04960         2.6127         7.1008         3.3054
    3140.20200         2.6006         7.3328         3.4065
    3140.35440         2.6233         7.5504         3.3066
    3140.50680         2.6787         7.8008         2.9594
    3140.65920         2.6866         7.8681         2.7071
    3140.81160         2.6969         7.7411         2.5004
    3140.96400         2.6416         7.6338         2.4337
    3141.11640         2.5895         7.3698         2.4937
    3141.26880         2.5492         7.1474         2.6034
    3141.42120         2.5342         6.9490         2.7055
    3141.57360         2.6045         6.7369         2.7673
    3141.72600         2.7098         6.7036         2.7319
    3141.87840         2.8101         6.7482         2.6483
    3142.03080         2.8791         6.8259         2.5964
    3142.18320         2.8709         7.0869         2.5156
    3142.33560         2.8078         7.4327         2.4640
    3142.48800         2.7200         7.8613         2.4460
    3142.64040         2.6249         8.4173         2.3982
    3142.79280         2.5211         8.8227         2.4439
    3142.94520         2.4128         9.2907         2.4942
    3143.09760         2.3044         9.9539         2.4934
    3143.25000         2.2241        10.6764         2.5077
    3143.40240         2.1323        11.4903         2.4481
    3143.55480         2.0074        12.4210         2.4231
    3143.70720         1.8419        12.8253         2.6412
    3143.85960         1.6295        12.8617         3.0076
    3144.01200         1.4593        12.5640         3.3844
    3144.16440         1.3565        12.0823         3.6987
    3144.31680         1.3247        11.8118         3.8528
    3144.46920         1.3703        11.6490         3.9773
    3144.62160         1.4056        11.5375         4.1778
    3144.77400         1.4256        11.5451         4.3776
    3144.92640         1.4809        11.3996         4.4725
    3145.07880         1.5549        10.8614         4.4736
    3145.23120         1.6990        10.1877         4.2220
    3145.38360         1.8614         9.4037         3.9391
    3145.53600         2.0049         8.8263         3.6420
    3145.68840         2.0761         8.4342         3.5410
    3145.84080         2.1292         8.3718         3.4336
    3145.99320         2.1385         8.5158         3.4118
    3146.14560         2.1642         8.8578         3.3431
