~Version Information Block
VERS .                  2.0:  CWLS LOG ASCII STANDARD - VERSION 2.0
WRAP .                   NO:  One line per depth step
~Well Information Block
#MNEM.UNIT        Data Type   Information
#---------- ----------------  -----------
STRT .M          3064.61160:  START DEPTH
STOP .M          3593.28720:  STOP DEPTH
STEP .M             0.15240:  STEP
NULL .              -999.25:  NULL VALUE
COMP .                     :  COMPANY
WELL .          NO_31/1-3_S:  WELL
FLD  .                     :  FIELD
LOC  .                     :  LOCATION
CTRY .                     :  COUNTRY
STAT .                     :  STATE
CNTY .                     :  COUNTY
SRVC .                     :  SERVICE COMPANY
DATE .                     :  DATE
API  .                     :  API NUMBER
UWI  .                     :  UNIQUE WELL ID
~Curve Information Block
#MNEM.UNIT         API CODE   Curve Description
#---------- ----------------  -----------------
DEPTH.M                    :  Loaded from /private/inp/roever_soer_wells.unl.
LFP_K.%                    :  Potassium
LFP_TH.PPM                  :  Thorium
LFP_U.PPM                  :  Uranium
~Parameter Information Block
#MNEM.UNIT            Value   Description
#---------- ----------------  -----------
PROJECT.     LFP@st-vlinapp01:  
SET  .                  LFP:  
~Other Information Block
# 
~A       DEPTH          LFP_K         LFP_TH          LFP_U 
# ...
    3330.09240         3.1376        11.6310         3.3275
    3330.24480         3.1005        11.5796         3.6929
    3330.39720         3.0893        11.7306         3.9381
    3330.54960         3.1401        11.8768         4.0768
    3330.70200         3.2148        12.1572         4.0186
    3330.85440         3.2383        12.0807         3.9762
    3331.00680         3.1881        11.5031         3.9318
    3331.15920         3.0239        10.4135         3.8173
    3331.31160         2.7929         9.0642         3.5362
    3331.46400         2.5292         7.6822         3.0079
    3331.61640         2.2268         6.5991         2.3523
    3331.76880         1.9311         5.6447         1.8570
    3331.92120         1.6661         5.0111         1.6113
    3332.07360         1.4921         4.7703         1.6389
    3332.22600         1.4648         4.7657         1.7906
    3332.37840         1.5503         5.2012         1.8520
    3332.53080         1.7268         5.9216         1.7772
    3332.68320         1.9068         6.2843         1.7362
    3332.83560         2.0833         6.5704         1.7124
    3332.98800         2.2650         6.8421         1.8144
    3333.14040         2.4422         7.1435         2.0243
    3333.29280         2.5800         7.9135         2.1913
    3333.44520         2.6650         8.6673         2.3068
    3333.59760         2.5758         9.0221         2.3802
    3333.75000         2.3588         8.8491         2.2613
    3333.90240         2.0669         7.8180         2.1017
    3334.05480         1.7563         6.4714         1.8328
    3334.20720         1.5254         5.3829         1.4297
    3334.35960         1.4311         4.6306         1.2007
    3334.51200         1.4629         4.5481         1.0468
    3334.66440         1.6101         4.8573         1.0857
    3334.81680         1.8372         5.3022         1.2206
    3334.96920         2.0683         5.8263         1.2556
    3335.12160         2.2326         6.0969         1.2080
    3335.27400         2.2991         6.1127         1.1371
    3335.42640         2.2782         5.8902         1.0977
    3335.57880         2.2146         5.6065         1.2930
    3335.73120         2.2334         5.5240         1.5723
    3335.88360         2.3273         5.7368         2.0149
    3336.03600         2.5126         6.2947         2.4631
    3336.18840         2.7205         7.0376         2.8663
    3336.34080         2.8777         7.6817         3.1760
    3336.49320         2.9555         8.2991         3.2610
    3336.64560         2.9684         8.6823         3.1395
    3336.79800         2.9019         8.8507         2.9872
    3336.95040         2.7966         9.0076         2.8256
    3337.10280         2.6862         9.0590         2.7278
    3337.25520         2.6090         9.1150         2.6672
    3337.40760         2.6231         9.3272         2.4671
    3337.56000         2.6719         9.4330         2.1660
    3337.71240         2.7243         9.2524         1.8486
    3337.86480         2.7471         8.8681         1.5810
    3338.01720         2.7058         8.3882         1.4493
    3338.16960         2.6261         8.0252         1.5387
    3338.32200         2.5396         7.8991         1.7577
    3338.47440         2.4102         7.8785         1.9914
    3338.62680         2.2738         7.6109         2.0601
    3338.77920         2.0818         6.9583         2.0049
    3338.93160         1.8735         5.9200         1.8357
    3339.08400         1.7123         4.7718         1.6430
    3339.23640         1.6198         4.0169         1.5390
    3339.38880         1.6217         3.7805         1.6235
    3339.54120         1.7095         4.1997         1.8238
    3339.69360         1.8294         5.0373         2.2605
    3339.84600         1.9906         6.1475         2.7137
    3339.99840         2.1860         7.0798         3.1233
    3340.15080         2.4007         7.7023         3.4357
    3340.30320         2.5899         8.0820         3.5573
    3340.45560         2.7401         8.3695         3.5279
    3340.60800         2.8240         8.7198         3.4073
    3340.76040         2.8738         9.2334         3.0623
    3340.91280         2.8910         9.4137         2.7682
    3341.06520         2.8815         9.2430         2.5261
    3341.21760         2.8954         8.8206         2.3974
    3341.37000         2.8752         8.5801         2.3510
    3341.52240         2.8318         8.5503         2.4058
    3341.67480         2.7959         8.9135         2.3822
    3341.82720         2.7520         9.1354         2.3425
    3341.97960         2.7220         9.0166         2.3262
    3342.13200         2.7048         8.8571         2.3518
    3342.28440         2.6903         8.5364         2.5733
    3342.43680         2.7044         8.3464         2.9030
    3342.58920         2.7044         8.6557         3.2116
    3342.74160         2.7322         9.2356         3.4201
    3342.89400         2.8056        10.1009         3.3977
    3343.04640         2.9174        10.9666         3.2628
    3343.19880         3.0625        11.4857         3.1054
    3343.35120         3.2003        11.8593         2.8646
    3343.50360         3.2192        11.6836         2.7376
    3343.65600         3.1050        11.0520         2.6765
    3343.80840         2.8464        10.2820         2.5392
    3343.96080         2.5072         9.3651         2.3889
    3344.11320         2.2040         8.4989         2.1864
    3344.26560         2.0067         7.7888         2.0113
    3344.41800         1.9682         7.2008         1.9828
    3344.57040         2.0652         6.9527         2.0197
    3344.72280         2.1803         6.8314         2.1489
    3344.87520         2.2961         6.6854         2.2537
    3345.02760         2.2937         6.5549         2.2509
    3345.18000         2.1986         6.0788         2.1256
    3345.33240         2.0508         5.2978         1.9196
    3345.48480         1.8407         4.5226         1.7352
    3345.63720         1.6721         3.7869         1.7088
    3345.78960         1.5929         3.5715         1.7561
    3345.94200         1.6053         4.0033         1.7327
    3346.09440         1.6948         4.6755         1.7844
    3346.24680         1.7961         5.4724         1.7850
    3346.39920         1.8714         6.1149         1.7111
    3346.55160         1.9568         6.5203         1.5955
    3346.70400         2.0757         7.0138         1.3296
    3346.85640         2.2225         7.5598         1.0943
    3347.00880         2.4094         8.0860         1.0645
    3347.16120         2.5900         8.6821         1.1507
    3347.31360         2.7250         9.0654         1.5527
    3347.46600         2.8381         9.3368         2.0755
    3347.61840         2.8851         9.6010         2.5428
    3347.77080         2.8743         9.8081         2.9970
    3347.92320         2.8367         9.7910         3.2998
    3348.07560         2.7442         9.8705         3.4196
    3348.22800         2.6733         9.9918         3.3547
    3348.38040         2.6527        10.3843         3.0800
    3348.53280         2.6959        11.2353         2.6705
    3348.68520         2.8202        12.3296         2.2629
    3348.83760         2.9726        12.9845         2.0239
    3348.99000         3.1063        12.9968         1.9661
    3349.14240         3.1540        12.2543         2.0403
    3349.29480         3.0927        10.9732         2.2074
    3349.44720         2.9443         9.6950         2.3547
    3349.59960         2.7915         8.6285         2.5275
    3349.75200         2.7371         7.9813         2.6923
    3349.90440         2.7875         7.8982         2.7416
    3350.05680         2.8546         7.9295         2.9539
    3350.20920         2.9644         8.0571         3.1051
    3350.36160         3.0486         8.3901         3.1677
