~Version Information Block
VERS .                  2.0:  CWLS LOG ASCII STANDARD - VERSION 2.0
WRAP .                   NO:  One line per depth step
~Well Information Block
#MNEM.UNIT        Data Type   Information
#---------- ----------------  -----------
STRT .M           455.06640:  START DEPTH
STOP .M          3604.71720:  STOP DEPTH
STEP .M             0.15240:  STEP
NULL .              -999.25:  NULL VALUE
COMP .                     :  COMPANY
WELL .          NO_31/1-3_S:  WELL
FLD  .                     :  FIELD
LOC  .                     :  LOCATION
CTRY .                     :  COUNTRY
STAT .                     :  STATE
CNTY .                     :  COUNTY
SRVC .                     :  SERVICE COMPANY
DATE .                     :  DATE
API  .                     :  API NUMBER
UWI  .                     :  UNIQUE WELL ID
~Curve Information Block
#MNEM.UNIT         API CODE   Curve Description
#---------- ----------------  -----------------
DEPTH.M                    :  Loaded from /private/inp/roever_soer_wells.unl.
LFP_CALI.INCHES                 :  Caliper
LFP_DRHO.G/CM3                 :  Density Correction
LFP_DTST_LOG.US/FT                 :  DT Stonely
LFP_DTS_LOG.US/FT                 :  Shear slowness
LFP_DT_LOG.US/FT                 :  Compressional slowness
LFP_GR.API                  :  Gamma Ray (LFP_GR_1 Edited)
LFP_NPHI.V/V                  :  Neutron
LFP_PEF.B/E                  :  Photoelectric Factor
LFP_RHOB_LOG.G/CM3                 :  Density
LFP_RM.OHMM                 :  Medium Resistivity
LFP_RS.OHMM                 :  Shallow Resistivity
LFP_RT_LOG.OHMM                 :  Deep Resistivity
~Parameter Information Block
#MNEM.UNIT            Value   Description
#---------- ----------------  -----------
PROJECT.     LFP@st-vlinapp01:  
SET  .                  LFP:  
~Other Information Block
# 
~A       DEPTH       LFP_CALI       LFP_DRHO   LFP_DTST_LOG    LFP_DTS_LOG     LFP_DT_LOG         LFP_GR       LFP_NPHI        LFP_PEF   LFP_RHOB_LOG         LFP_RM         LFP_RS     LFP_RT_LOG 
# ...
    2388.10800        12.2503       0.018157      -999.2500       253.8599       113.7188        65.1406       0.285486         5.0079         2.4473         0.8463         0.9408         0.8792
    2388.26040        12.2503       0.017441      -999.2500       254.8562       113.8469        56.5611       0.335464         5.0502         2.4432         0.9144         0.8956         0.9650
    2388.41280        12.2505       0.012143      -999.2500       256.0031       113.7857        59.3993       0.322286         4.9106         2.4281         0.9841         0.9642         1.0031
    2388.56520        12.2504       0.015791      -999.2500       258.9410       113.5169        62.3273       0.322690         4.9829         2.4365         0.9804         1.0060         0.9973
    2388.71760        12.2504       0.022257      -999.2500       259.1534       113.5799        58.8893       0.309150         5.1510         2.4630         0.9612         1.0144         0.9791
    2388.87000        12.2504       0.024093      -999.2500       256.1382       114.0875        63.2452       0.328186         5.2196         2.4544         0.9579         1.0076         0.9807
    2389.02240        12.2504       0.025279      -999.2500       256.7303       113.8480        69.7565       0.336312         5.2060         2.4467         0.9637         1.0074         0.9888
    2389.17480        12.2504       0.037345      -999.2500       259.5065       112.8358        66.2146       0.304297         5.3217         2.4627         0.9797         1.0174         1.0004
    2389.32720        12.2504       0.038100      -999.2500       257.9245       112.2852        61.4657       0.321775         5.3605         2.4628         1.0016         1.0436         1.0175
    2389.47960        12.2504       0.018397      -999.2500       256.0970       111.7587        61.3463       0.327426         4.9768         2.4425         1.0068         1.0594         1.0195
    2389.63200        12.2504       0.028565      -999.2500       254.9606       111.6561        58.6539       0.321962         5.2308         2.4474         0.9845         1.0465         0.9916
    2389.78440        12.2504       0.043076      -999.2500       254.8705       111.8355        58.5622       0.319012         5.4525         2.4656         0.9785         1.0272         0.9955
    2389.93680        12.2504       0.023145      -999.2500       255.2843       112.4986        60.0997       0.299897         5.0919         2.4440         0.9812         1.0249         0.9965
    2390.08920        12.2504       0.028864      -999.2500       255.4275       112.7476        67.6912       0.319230         5.3176         2.4504         0.9624         1.0102         0.9794
    2390.24160        12.2504       0.043406      -999.2500       254.5016       112.3100        61.9216       0.339517         5.6629         2.4708         0.9503         1.0033         0.9739
    2390.39400        12.2504       0.038711      -999.2500       254.4377       111.5340        53.1473       0.328294         5.9938         2.4776         0.9555         1.0071         0.9927
    2390.54640        12.2504       0.000267      -999.2500       256.5259       110.9792        53.4708       0.311827         5.8211         2.4742         1.0053         1.0403         1.0395
    2390.69880        12.2505       0.026797      -999.2500       261.1230       111.0941        51.6005       0.312036         5.7014         2.5593         1.0163         1.0633         1.0319
    2390.85120        12.2543       0.073847      -999.2500       261.4872       111.7104        45.8441       0.324610         5.6760         2.5851         0.9504         1.0208         0.9666
    2391.00360        12.2674       0.043260      -999.2500       258.9649       112.7465        52.1427       0.340571         5.4592         2.4836         0.9391         0.9856         0.9549
    2391.15600        12.2505       0.044187      -999.2500       256.9333       113.2730        55.0133       0.329013         5.1921         2.4715         0.9429         0.9704         0.9662
    2391.30840        12.3156       0.024464      -999.2500       255.1074       113.1432        54.1141       0.321056         5.1979         2.4591         0.9700         0.9972         0.9957
    2391.46080        12.3157       0.021316      -999.2500       255.1919       113.2276        67.6622       0.307505         5.1370         2.4585         0.9856         1.0259         1.0111
    2391.61320        12.3016       0.009049      -999.2500       256.0525       113.4205        71.8952       0.317938         4.8967         2.4586         0.9954         1.0490         1.0155
    2391.76560        12.2557       0.023569      -999.2500       258.8176       113.0672        70.3131       0.322220         5.1589         2.4673         0.9854         1.0415         0.9957
    2391.91800        12.2505       0.019918      -999.2500       258.0739       112.8209        67.9198       0.322243         5.3154         2.4460         0.9828         1.0308         0.9892
    2392.07040        12.2504       0.011541      -999.2500       252.7403       112.1422        64.8839       0.333322         4.8104         2.4268         0.9922         1.0337         0.9998
    2392.22280        12.2505       0.035775      -999.2500       250.5999       111.4839        65.7862       0.308339         5.2989         2.4592         1.0083         1.0502         1.0321
    2392.37520        12.2554       0.025045      -999.2500       248.7989       110.6820        67.5801       0.308682         5.1553         2.4405         1.0399         1.0811         1.0806
    2392.52760        12.2775       0.031888      -999.2500       248.1440       109.2776        61.8341       0.308883         5.6366         2.4498         1.1070         1.1412         1.1524
    2392.68000        12.2542       0.006210      -999.2500       246.4830       107.5522        53.2051       0.276251         5.8058         2.4832         1.2051         1.2513         1.2346
    2392.83240        12.2535      -0.001337      -999.2500       242.6493       103.9700        45.7605       0.289168         6.4811         2.5852         1.2057         1.2886         1.2287
    2392.98480        12.2795       0.030157      -999.2500       245.0601       103.5081        54.9427       0.308832         5.6841         2.6587         1.3399         1.3813         1.3041
    2393.13720        12.3081      -0.018685      -999.2500       252.6511       105.6406        65.1910       0.330907         7.7844         2.6178         1.1798         1.2964         1.1361
    2393.28960        12.2720       0.057193      -999.2500       255.3256       107.0066        65.4858       0.329314         6.3022         2.7124         1.0585         1.1593         1.0489
    2393.44200        12.2506       0.036785      -999.2500       253.3997       111.0122        61.7771       0.328584         5.2143         2.5533         1.0251         1.0877         1.0300
    2393.59440        12.2505       0.010403      -999.2500       253.8132       112.1435        58.8108       0.314576         4.3943         2.4561         1.0114         1.0487         1.0281
    2393.74680        12.2505       0.011742      -999.2500       255.3533       112.8779        61.1456       0.316855         4.9026         2.4298         0.9993         1.0337         1.0197
    2393.89920        12.2505       0.029644      -999.2500       258.2245       112.4974        60.9666       0.316226         5.5011         2.4356         0.9882         1.0326         1.0157
    2394.05160        12.2506       0.028221      -999.2500       258.3627       112.3404        67.8920       0.323138         5.5158         2.4428         0.9757         1.0385         1.0084
    2394.20400        12.2506       0.021580      -999.2500       251.7000       113.0216        73.0005       0.335934         5.4187         2.4437         0.9815         1.0408         1.0098
    2394.35640        12.2505       0.028090      -999.2500       247.3470       113.4627        58.7239       0.319081         5.4322         2.4592         0.9946         1.0510         1.0146
