~Version Information Block
VERS .                  2.0:  CWLS LOG ASCII STANDARD - VERSION 2.0
WRAP .                   NO:  One line per depth step
~Well Information Block
#MNEM.UNIT        Data Type   Information
#---------- ----------------  -----------
STRT .M           455.06640:  START DEPTH
STOP .M          3604.71720:  STOP DEPTH
STEP .M             0.15240:  STEP
NULL .              -999.25:  NULL VALUE
COMP .                     :  COMPANY
WELL .          NO_31/1-3_S:  WELL
FLD  .                     :  FIELD
LOC  .                     :  LOCATION
CTRY .                     :  COUNTRY
STAT .                     :  STATE
CNTY .                     :  COUNTY
SRVC .                     :  SERVICE COMPANY
DATE .                     :  DATE
API  .                     :  API NUMBER
UWI  .                     :  UNIQUE WELL ID
~Curve Information Block
#MNEM.UNIT         API CODE   Curve Description
#---------- ----------------  -----------------
DEPTH.M                    :  Loaded from /private/inp/roever_soer_wells.unl.
LFP_CALI.INCHES                 :  Caliper
LFP_DRHO.G/CM3                 :  Density Correction
LFP_DTST_LOG.US/FT                 :  DT Stonely
LFP_DTS_LOG.US/FT                 :  Shear slowness
LFP_DT_LOG.US/FT                 :  Compressional slowness
LFP_GR.API                  :  Gamma Ray (LFP_GR_1 Edited)
LFP_NPHI.V/V                  :  Neutron
LFP_PEF.B/E                  :  Photoelectric Factor
LFP_RHOB_LOG.G/CM3                 :  Density
LFP_RM.OHMM                 :  Medium Resistivity
LFP_RS.OHMM                 :  Shallow Resistivity
LFP_RT_LOG.OHMM                 :  Deep Resistivity
~Parameter Information Block
#MNEM.UNIT            Value   Description
#---------- ----------------  -----------
PROJECT.     LFP@st-vlinapp01:  
SET  .                  LFP:  
~Other Information Block
# 
~A       DEPTH       LFP_CALI       LFP_DRHO   LFP_DTST_LOG    LFP_DTS_LOG     LFP_DT_LOG         LFP_GR       LFP_NPHI        LFP_PEF   LFP_RHOB_LOG         LFP_RM         LFP_RS     LFP_RT_LOG 
# ...
    2151.27840        12.2503       0.036937      -999.2500       284.8221       124.0852        45.5753       0.335906         5.5076         2.3434         0.7898         0.8363         0.7647
    2151.43080        12.2503       0.042604      -999.2500       286.4756       124.9900        45.6265       0.320322         5.6222         2.3403         0.7982         0.8082         0.7693
    2151.58320        12.2503       0.035452      -999.2500       287.8395       125.2037        44.6909       0.331800         5.7811         2.3398         0.7986         0.8030         0.7730
    2151.73560        12.2504       0.029412      -999.2500       287.7897       125.6300        45.6539       0.361044         5.6854         2.3298         0.7774         0.7995         0.7738
    2151.88800        12.2503       0.022037      -999.2500       288.4005       125.2779        47.7080       0.344882         5.7081         2.3229         0.7572         0.7934         0.7726
    2152.04040        12.2534       0.023837      -999.2500       290.0308       124.1852        42.5318       0.333472         5.5416         2.3285         0.7517         0.7893         0.7723
    2152.19280        12.3076       0.004688      -999.2500       292.0254       124.2405        48.9106       0.341539         5.4435         2.3025         0.7580         0.7903         0.7665
    2152.34520        12.2603       0.017128      -999.2500       294.0134       124.7551        53.3051       0.345097         5.1994         2.3238         0.7441         0.7859         0.7421
    2152.49760        12.2504       0.022735      -999.2500       300.8423       126.2520        45.1167       0.364019         5.2417         2.3220         0.7146         0.7614         0.7213
    2152.65000        12.2504       0.031618      -999.2500       295.9123       126.1812        48.8336       0.346972         5.2732         2.3273         0.6920         0.7363         0.7116
    2152.80240        12.2504       0.037282      -999.2500       292.8061       125.9558        53.3455       0.338496         5.8600         2.3322         0.7048         0.7388         0.7485
    2152.95480        12.2504       0.022148      -999.2500       286.5700       124.6828        43.9298       0.350572         5.7320         2.3029         0.7604         0.7894         0.8114
    2153.10720        12.2504       0.022048      -999.2500       285.1465       124.1829        48.2343       0.345298         5.6920         2.3134         0.7825         0.8239         0.8320
    2153.25960        12.2504       0.017993      -999.2500       286.2894       123.4924        45.2065       0.337171         5.4494         2.3288         0.7842         0.8291         0.8175
    2153.41200        12.2603       0.010525      -999.2500       293.4870       123.7241        46.9519       0.357956         4.8925         2.3232         0.7637         0.8157         0.7713
    2153.56440        12.3082       0.032488      -999.2500       311.0580       124.8289        51.4377       0.386291         5.2569         2.3169         0.7056         0.7546         0.6973
    2153.71680        12.2921       0.028116      -999.2500       318.2007       126.4173        44.3945       0.382876         5.2938         2.2872         0.6110         0.6653         0.6115
    2153.86920        12.2375       0.016143      -999.2500       321.7407       128.1508        43.7600       0.352593         4.9352         2.2728         0.5475         0.5878         0.5690
    2154.02160        12.1938       0.007948      -999.2500       316.8661       129.2221        46.8961       0.356630         4.5415         2.2540         0.5648         0.5772         0.6105
    2154.17400        12.2504       0.012760      -999.2500       312.8480       129.0835        43.4094       0.395557         4.6658         2.2694         0.6462         0.6448         0.6938
    2154.32640        12.2504       0.012667      -999.2500       307.1136       128.0076        45.8841       0.378382         4.3645         2.2989         0.7114         0.7253         0.7401
    2154.47880        12.2504       0.016881      -999.2500       305.6823       128.4186        52.0727       0.383353         4.3527         2.3170         0.7089         0.7476         0.7203
    2154.63120        12.2504       0.012366      -999.2500       303.5406       129.2093        58.7357       0.391961         4.1996         2.3041         0.7057         0.7487         0.7074
    2154.78360        12.2504       0.011682      -999.2500       303.3587       129.5833        64.9105       0.350494         4.2550         2.2993         0.7092         0.7341         0.7023
    2154.93600        12.2504       0.010520      -999.2500       303.5767       129.7399        64.3629       0.343925         4.5200         2.3099         0.7103         0.7318         0.7039
    2155.08840        12.2505       0.018220      -999.2500       302.0021       129.8042        63.3136       0.341565         4.5915         2.3088         0.6801         0.7173         0.6841
    2155.24080        12.2505       0.031698      -999.2500       299.2957       129.8530        54.5462       0.355861         4.5163         2.3212         0.6691         0.7044         0.6919
    2155.39320        12.2669       0.010560      -999.2500       297.4887       129.8012        52.7130       0.390664         4.4985         2.2950         0.6813         0.7114         0.7004
    2155.54560        12.2968       0.006243      -999.2500       299.3515       129.4830        47.9533       0.346486         4.5690         2.2949         0.6807         0.7167         0.6974
    2155.69800        12.2995       0.021942      -999.2500       303.1363       129.9378        54.1298       0.360465         4.5026         2.2934         0.6823         0.7193         0.6934
    2155.85040        12.3078       0.019663      -999.2500       308.8107       130.7528        58.4638       0.386447         4.4462         2.2843         0.6849         0.7230         0.6918
    2156.00280        12.3483       0.020593      -999.2500       308.7139       130.1056        64.5002       0.407968         4.5818         2.2806         0.6789         0.7217         0.6863
    2156.15520        12.3176       0.026044      -999.2500       309.6172       129.6314        59.8428       0.361345         4.9386         2.2947         0.6748         0.7161         0.6790
    2156.30760        12.3157       0.029121      -999.2500       311.1971       129.5652        52.7001       0.373574         4.9204         2.2984         0.6588         0.7062         0.6629
    2156.46000        12.3157       0.008859      -999.2500       313.6404       131.3545        55.3084       0.363358         4.2405         2.2914         0.6314         0.6712         0.6471
    2156.61240        12.3198       0.018920      -999.2500       313.9994       131.8408        57.2080       0.379461         4.5195         2.2960         0.6486         0.6659         0.6669
    2156.76480        12.3068       0.030431      -999.2500       313.2560       131.0223        60.5246       0.417179         5.6351         2.3010         0.6577         0.6793         0.6726
    2156.91720        12.2570       0.024885      -999.2500       312.8589       130.5322        63.5633       0.389160         5.3450         2.2976         0.6496         0.6817         0.6674
    2157.06960        12.2747       0.026764      -999.2500       313.6557       130.4359        61.6128       0.369278         5.5128         2.2905         0.6478         0.6812         0.6685
    2157.22200        12.3119       0.033656      -999.2500       312.6437       130.4999        59.7643       0.378274         5.8594         2.2987         0.6508         0.6828         0.6745
    2157.37440        12.2812       0.024713      -999.2500       311.1472       130.6207        57.6913       0.372750         5.5702         2.2867         0.6709         0.6958         0.6929
    2157.52680        12.2634       0.028083      -999.2500       307.3706       130.9197        57.8651       0.360265         5.4527         2.2921         0.6862         0.7155         0.7023
