~Version Information Block
VERS .                  2.0:  CWLS LOG ASCII STANDARD - VERSION 2.0
WRAP .                   NO:  One line per depth step
~Well Information Block
#MNEM.UNIT        Data Type   Information
#---------- ----------------  -----------
STRT .M           455.06640:  START DEPTH
STOP .M          3604.71720:  STOP DEPTH
STEP .M             0.15240:  STEP
NULL .              -999.25:  NULL VALUE
COMP .                     :  COMPANY
WELL .          NO_31/1-3_S:  WELL
FLD  .                     :  FIELD
LOC  .                     :  LOCATION
CTRY .                     :  COUNTRY
STAT .                     :  STATE
CNTY .                     :  COUNTY
SRVC .                     :  SERVICE COMPANY
DATE .                     :  DATE
API  .                     :  API NUMBER
UWI  .                     :  UNIQUE WELL ID
~Curve Information Block
#MNEM.UNIT         API CODE   Curve Description
#---------- ----------------  -----------------
DEPTH.M                    :  Loaded from /private/inp/roever_soer_wells.unl.
LFP_CALI.INCHES                 :  Caliper
LFP_DRHO.G/CM3                 :  Density Correction
LFP_DTST_LOG.US/FT                 :  DT Stonely
LFP_DTS_LOG.US/FT                 :  Shear slowness
LFP_DT_LOG.US/FT                 :  Compressional slowness
LFP_GR.API                  :  Gamma Ray (LFP_GR_1 Edited)
LFP_NPHI.V/V                  :  Neutron
LFP_PEF.B/E                  :  Photoelectric Factor
LFP_RHOB_LOG.G/CM3                 :  Density
LFP_RM.OHMM                 :  Medium Resistivity
LFP_RS.OHMM                 :  Shallow Resistivity
LFP_RT_LOG.OHMM                 :  Deep Resistivity
~Parameter Information Block
#MNEM.UNIT            Value   Description
#---------- ----------------  -----------
PROJECT.     LFP@st-vlinapp01:  
SET  .                  LFP:  
~Other Information Block
# 
~A       DEPTH       LFP_CALI       LFP_DRHO   LFP_DTST_LOG    LFP_DTS_LOG     LFP_DT_LOG         LFP_GR       LFP_NPHI        LFP_PEF   LFP_RHOB_LOG         LFP_RM         LFP_RS     LFP_RT_LOG 
# ...
    1914.44880        12.3411      -0.002180      -999.2500       211.9026       136.7127        61.5808       0.367869         6.8717         2.2545         0.7741         0.8241         0.7973
    1914.60120        12.3869      -0.019343      -999.2500       207.3101       133.9655        56.1108       0.392180         7.4187         2.3781         0.8237         0.8087         0.9056
    1914.75360        12.3260       0.025915      -999.2500       185.2751       113.3166        40.3884       0.354861         6.8443         2.5909         1.1604         0.9344         1.2780
    1914.90600        12.2636       0.074425      -999.2500       176.2371       104.8403        29.3011       0.351626         5.5468         2.5290         2.1132         1.7656         1.7855
    1915.05840        12.2550       0.041883      -999.2500       177.0997       103.6937        29.4494       0.318600         5.8670         2.3149         1.7003         2.3136         1.2952
    1915.21080        12.2550       0.031986      -999.2500       194.1421       105.0112        35.8473       0.237953         5.9969         2.2647         0.9078         1.3975         0.7898
    1915.36320        12.2550       0.025261      -999.2500       249.0736       110.8771        44.4177       0.238051         5.3689         2.2349         0.7586         0.9171         0.7333
    1915.51560        12.2550       0.018535      -999.2500       265.1254       114.6471        56.4563       0.303918         4.7409         2.2050         0.8566         0.8227         0.8365
    1915.66800        12.2427       0.008823      -999.2500       264.9995       117.3580        52.8434       0.338934         5.0933         2.2140         1.0346         0.9086         0.9846
    1915.82040        12.1970       0.009117      -999.2500       266.0527       119.7162        37.5685       0.340110         5.6644         2.3107         0.9273         0.9533         0.8800
    1915.97280        12.1894       0.028803      -999.2500       276.8637       124.5197        44.2608       0.334520         4.4002         2.2935         0.7382         0.8165         0.7408
    1916.12520        12.1894       0.010156      -999.2500       289.4703       129.5622        46.8224       0.329882         4.6818         2.2020         0.6175         0.6785         0.6251
    1916.27760        12.2421       0.004992      -999.2500       302.1108       132.1969        55.2056       0.353707         4.8883         2.1927         0.5659         0.5881         0.5924
    1916.43000        12.2550       0.011775      -999.2500       309.0545       133.6938        60.4088       0.356214         5.0824         2.2010         0.5835         0.5867         0.6222
    1916.58240        12.2550       0.031811      -999.2500       316.7116       135.9308        68.1676       0.385703         5.5648         2.2169         0.6112         0.6193         0.6581
    1916.73480        12.2517       0.015884      -999.2500       320.7565       137.0921        50.4443       0.382022         4.8346         2.2052         0.6188         0.6609         0.6474
    1916.88720        12.2254       0.016151      -999.2500       320.8427       137.0074        60.7140       0.354026         4.7748         2.2266         0.5943         0.6438         0.6244
    1917.03960        12.2148       0.023246      -999.2500       316.4750       135.9680        77.2908       0.337912         4.9071         2.2397         0.6263         0.6568         0.6522
    1917.19200        12.1689       0.009337      -999.2500       309.6989       135.4750        66.9567       0.364593         4.4577         2.2012         0.6633         0.6814         0.6811
    1917.34440        12.1516       0.002162      -999.2500       304.0315       135.0217        58.3666       0.370317         4.2858         2.1871         0.7029         0.7313         0.7049
    1917.49680        12.2446       0.016944      -999.2500       300.5918       134.2514        62.4114       0.365746         5.1095         2.2086         0.6617         0.7236         0.6681
    1917.64920        12.2505       0.024614      -999.2500       297.1460       134.2246        59.8117       0.358641         4.6425         2.2208         0.6646         0.6982         0.6881
    1917.80160        12.2254       0.014624      -999.2500       295.0802       133.9977        57.3433       0.375382         4.4704         2.1812         0.7122         0.7291         0.7163
    1917.95400        12.2501       0.005088      -999.2500       294.9858       133.5846        53.2101       0.388854         4.3282         2.1896         0.7076         0.7477         0.7011
    1918.10640        12.2539       0.003727      -999.2500       283.7306       131.4467        50.5350       0.354905         4.2595         2.1965         0.6818         0.7323         0.6942
    1918.25880        12.2539       0.023421      -999.2500       276.9328       127.6825        50.9812       0.328092         4.5145         2.1957         0.6991         0.7384         0.7216
    1918.41120        12.2539       0.007622      -999.2500       269.6867       123.4779        46.5144       0.333032         4.3261         2.1845         0.7468         0.7747         0.7687
    1918.56360        12.2011       0.000693      -999.2500       270.3658       128.0329        50.5281       0.324512         4.1290         2.1785         0.7957         0.8409         0.7979
    1918.71600        12.2057       0.007993      -999.2500       271.9498       132.7173        47.3232       0.342366         4.5776         2.1877         0.7885         0.8467         0.7982
    1918.86840        12.2539       0.022619      -999.2500       272.4099       134.4514        52.4613       0.347913         4.9592         2.2059         0.8030         0.8443         0.8162
    1919.02080        12.2540       0.031078      -999.2500       272.3071       134.4729        49.2972       0.338346         5.3466         2.2097         0.7807         0.8321         0.7771
    1919.17320        12.2540       0.029588      -999.2500       272.0363       132.8732        61.4115       0.333660         5.4506         2.2130         0.7337         0.7878         0.7341
    1919.32560        12.2539       0.031465      -999.2500       269.5952       131.8290        61.4290       0.339295         5.3925         2.2334         0.7130         0.7504         0.7185
    1919.47800        12.2372       0.026810      -999.2500       256.1346       130.8701        48.2980       0.359844         5.2783         2.2434         0.6841         0.7163         0.7228
    1919.63040        12.2326       0.008629      -999.2500       222.1312       124.8705        39.1866       0.350848         5.6188         2.2755         0.7045         0.7196         0.7714
    1919.78280        12.2867      -0.004692      -999.2500       182.2691       117.1143        39.3156       0.333834         7.4581         2.5101         1.0229         0.9516         1.0055
    1919.93520        12.2867       0.083795      -999.2500       192.7110       115.1109        39.4610       0.301234         6.3209         2.6811         1.2372         1.2232         1.1066
    1920.08760        12.2660       0.087917      -999.2500       230.8573       118.3619        46.5594       0.280198         5.1941         2.5426         0.8726         1.2069         0.7594
    1920.24000        12.2540       0.058385      -999.2500       250.1022       125.9921        71.1472       0.260606         5.2064         2.3620         0.6218         0.8268         0.5877
    1920.39240        12.2222       0.018989      -999.2500       264.1157       137.8718        72.1408       0.299164         5.2168         2.2452         0.5865         0.6389         0.5654
    1920.54480        12.2158       0.001929      -999.2500       301.9931       137.4160        61.1414       0.332397         4.6238         2.2406         0.6157         0.5976         0.6087
    1920.69720        12.2348       0.011977      -999.2500       317.1360       136.7545        56.1082       0.345432         4.6526         2.2498         0.6494         0.6243         0.6723
