~Version Information Block
VERS .                  2.0:  CWLS LOG ASCII STANDARD - VERSION 2.0
WRAP .                   NO:  One line per depth step
~Well Information Block
#MNEM.UNIT        Data Type   Information
#---------- ----------------  -----------
STRT .M           455.06640:  START DEPTH
STOP .M          3604.71720:  STOP DEPTH
STEP .M             0.15240:  STEP
NULL .              -999.25:  NULL VALUE
COMP .                     :  COMPANY
WELL .          NO_31/1-3_S:  WELL
FLD  .                     :  FIELD
LOC  .                     :  LOCATION
CTRY .                     :  COUNTRY
STAT .                     :  STATE
CNTY .                     :  COUNTY
SRVC .                     :  SERVICE COMPANY
DATE .                     :  DATE
API  .                     :  API NUMBER
UWI  .                     :  UNIQUE WELL ID
~Curve Information Block
#MNEM.UNIT         API CODE   Curve Description
#---------- ----------------  -----------------
DEPTH.M                    :  Loaded from /private/inp/roever_soer_wells.unl.
LFP_CALI.INCHES                 :  Caliper
LFP_DRHO.G/CM3                 :  Density Correction
LFP_DTST_LOG.US/FT                 :  DT Stonely
LFP_DTS_LOG.US/FT                 :  Shear slowness
LFP_DT_LOG.US/FT                 :  Compressional slowness
LFP_GR.API                  :  Gamma Ray (LFP_GR_1 Edited)
LFP_NPHI.V/V                  :  Neutron
LFP_PEF.B/E                  :  Photoelectric Factor
LFP_RHOB_LOG.G/CM3                 :  Density
LFP_RM.OHMM                 :  Medium Resistivity
LFP_RS.OHMM                 :  Shallow Resistivity
LFP_RT_LOG.OHMM                 :  Deep Resistivity
~Parameter Information Block
#MNEM.UNIT            Value   Description
#---------- ----------------  -----------
PROJECT.     LFP@st-vlinapp01:  
SET  .                  LFP:  
~Other Information Block
# 
~A       DEPTH       LFP_CALI       LFP_DRHO   LFP_DTST_LOG    LFP_DTS_LOG     LFP_DT_LOG         LFP_GR       LFP_NPHI        LFP_PEF   LFP_RHOB_LOG         LFP_RM         LFP_RS     LFP_RT_LOG 
# ...
    2509.72320        12.2259       0.014769      -999.2500       222.1500       106.3052        58.2336       0.273387         4.7842         2.4124         1.2230         1.2677         1.2111
    2509.87560        12.2267       0.024504      -999.2500       221.5148       106.3873        56.1002       0.282167         4.7241         2.4255         1.2138         1.2860         1.2128
    2510.02800        12.2506       0.031207      -999.2500       220.5376       106.4145        52.3280       0.282100         4.5777         2.4374         1.2047         1.3006         1.2154
    2510.18040        12.2346       0.030436      -999.2500       219.1023       106.2971        48.7447       0.279647         4.7755         2.4416         1.2048         1.3165         1.2379
    2510.33280        12.2364       0.031367      -999.2500       218.4458       105.9660        52.2293       0.304822         5.0764         2.4311         1.2123         1.3346         1.3117
    2510.48520        12.2506       0.027661      -999.2500       218.5381       105.0716        54.5980       0.271504         5.3989         2.4215         1.2357         1.3440         1.4218
    2510.63760        12.2506       0.026649      -999.2500       218.9639       103.6546        49.8239       0.282316         5.2514         2.4262         1.3089         1.3548         1.6098
    2510.79000        12.2506       0.030661      -999.2500       218.5338       104.6587        49.4899       0.308324         4.9728         2.4431         1.4160         1.3936         1.8035
    2510.94240        12.2506       0.032317      -999.2500       217.7824       106.4711        48.4851       0.319360         5.2860         2.4344         1.8345         1.5403         2.3873
    2511.09480        12.2655       0.033509      -999.2500       217.9133       106.1051        49.3132       0.289079         5.4606         2.4295         2.2659         1.8007         2.6627
    2511.24720        12.2854       0.035509      -999.2500       218.0277       103.3035        51.9619       0.301500         5.5280         2.4317         1.9645         1.8929         1.9821
    2511.39960        12.2506       0.026381      -999.2500       217.4888       101.9889        55.9934       0.323299         5.0278         2.4246         1.7108         1.7808         1.6968
    2511.55200        12.2506       0.012816      -999.2500       213.8443        99.7978        49.1772       0.276504         4.5762         2.4062         1.6368         1.6184         1.6609
    2511.70440        12.2506       0.029191      -999.2500       212.8495        99.9433        48.9461       0.285833         5.1075         2.4278         1.5792         1.5177         1.6500
    2511.85680        12.2506       0.040262      -999.2500       211.6915       100.9094        54.0492       0.296692         5.4264         2.4444         1.5032         1.4627         1.6123
    2512.00920        12.2506       0.055204      -999.2500       211.9598       101.8163        49.1565       0.296916         5.6441         2.4654         1.4072         1.4194         1.5906
    2512.16160        12.2506       0.044653      -999.2500       213.4483       103.4417        52.9202       0.297044         5.2423         2.4519         1.3517         1.3980         1.5668
    2512.31400        12.2506       0.028352      -999.2500       214.4890       104.2490        53.5261       0.315857         4.9623         2.4257         1.3094         1.3701         1.4800
    2512.46640        12.2506       0.030055      -999.2500       215.4527       104.6330        56.2543       0.288708         5.2023         2.4210         1.2960         1.3501         1.4168
    2512.61880        12.2506       0.033802      -999.2500       215.7918       105.3713        59.3335       0.293716         5.2910         2.4291         1.2749         1.3358         1.3712
    2512.77120        12.2506       0.018923      -999.2500       215.6180       105.4399        53.2489       0.292547         5.1774         2.4038         1.2932         1.3430         1.3729
    2512.92360        12.2506       0.004044      -999.2500       215.0418       105.6342        66.5940       0.289145         5.0638         2.3785         1.3411         1.3788         1.4071
    2513.07600        12.2506       0.025768      -999.2500       214.7584       106.1885        43.1407       0.275761         5.3103         2.4116         1.3707         1.4069         1.4210
    2513.22840        12.2506       0.032079      -999.2500       215.1734       106.2786        48.1088       0.299602         5.3074         2.4169         1.3865         1.4324         1.4144
    2513.38080        12.2507       0.029022      -999.2500       216.3329       106.3410        55.0088       0.302215         5.2058         2.4141         1.3621         1.4251         1.3823
    2513.53320        12.2507       0.040116      -999.2500       216.8606       106.6750        51.5454       0.291574         5.3995         2.4310         1.3346         1.3967         1.3554
    2513.68560        12.2507       0.022986      -999.2500       217.8115       108.2498        58.1767       0.286490         4.9098         2.3978         1.3184         1.3740         1.3370
    2513.83800        12.2507       0.023536      -999.2500       217.8649       108.6015        47.2958       0.297339         5.0518         2.3997         1.2979         1.3363         1.3157
    2513.99040        12.2507       0.031081      -999.2500       217.6681       108.5811        53.7127       0.295378         4.8265         2.4208         1.2503         1.3028         1.2840
    2514.14280        12.2507       0.037851      -999.2500       218.0529       108.6215        61.0661       0.290189         5.3123         2.4078         1.2357         1.2984         1.2696
    2514.29520        12.2507       0.043394      -999.2500       218.4402       108.6703        58.1387       0.295366         5.5148         2.4179         1.2045         1.2740         1.2303
    2514.44760        12.2507       0.037667      -999.2500       218.2604       108.3784        58.3438       0.296250         5.4341         2.4116         1.2045         1.2740         1.2303
    2514.60000        12.2507       0.037090      -999.2500       218.1386       107.9901        45.4040       0.299250         5.4237         2.4167         1.2078         1.2737         1.2220
    2514.75240        12.2507       0.035229      -999.2500       218.8793       108.3216        47.3587       0.300072         5.4549         2.4088         1.2020         1.2708         1.2155
    2514.90480        12.2507       0.045763      -999.2500       219.4052       108.7232        44.8761       0.290594         5.5150         2.4247         1.1935         1.2655         1.2173
    2515.05720        12.2507       0.053319      -999.2500       219.4106       109.1014        45.7508       0.300845         5.8409         2.4217         1.2041         1.2657         1.2267
    2515.20960        12.2507       0.024051      -999.2500       218.9264       110.3186        50.5664       0.298161         5.1315         2.3940         1.2169         1.2774         1.2376
    2515.36200        12.2507       0.007597      -999.2500       218.5219       110.6688        51.1902       0.292612         5.0042         2.3708         1.2167         1.2823         1.2404
    2515.51440        12.2507       0.023287      -999.2500       217.9438       110.4128        55.6403       0.297014         5.0516         2.4096         1.2290         1.2943         1.2564
    2515.66680        12.2507       0.029654      -999.2500       217.5171       110.1313        55.1559       0.295318         4.9343         2.4155         1.2457         1.3060         1.2700
    2515.81920        12.2507       0.015795      -999.2500       215.9052       109.1036        52.5413       0.279043         5.0558         2.3771         1.2613         1.3349         1.2745
    2515.97160        12.2507       0.023627      -999.2500       215.8108       108.9358        48.1980       0.292819         5.4762         2.3880         1.2598         1.3335         1.2749
