~Version Information Block
VERS .                  2.0:  CWLS LOG ASCII STANDARD - VERSION 2.0
WRAP .                   NO:  One line per depth step
~Well Information Block
#MNEM.UNIT        Data Type   Information
#---------- ----------------  -----------
STRT .M           455.06640:  START DEPTH
STOP .M          3604.71720:  STOP DEPTH
STEP .M             0.15240:  STEP
NULL .              -999.25:  NULL VALUE
COMP .                     :  COMPANY
WELL .          NO_31/1-3_S:  WELL
FLD  .                     :  FIELD
LOC  .                     :  LOCATION
CTRY .                     :  COUNTRY
STAT .                     :  STATE
CNTY .                     :  COUNTY
SRVC .                     :  SERVICE COMPANY
DATE .                     :  DATE
API  .                     :  API NUMBER
UWI  .                     :  UNIQUE WELL ID
~Curve Information Block
#MNEM.UNIT         API CODE   Curve Description
#---------- ----------------  -----------------
DEPTH.M                    :  Loaded from /private/inp/roever_soer_wells.unl.
LFP_CALI.INCHES                 :  Caliper
LFP_DRHO.G/CM3                 :  Density Correction
LFP_DTST_LOG.US/FT                 :  DT Stonely
LFP_DTS_LOG.US/FT                 :  Shear slowness
LFP_DT_LOG.US/FT                 :  Compressional slowness
LFP_GR.API                  :  Gamma Ray (LFP_GR_1 Edited)
LFP_NPHI.V/V                  :  Neutron
LFP_PEF.B/E                  :  Photoelectric Factor
LFP_RHOB_LOG.G/CM3                 :  Density
LFP_RM.OHMM                 :  Medium Resistivity
LFP_RS.OHMM                 :  Shallow Resistivity
LFP_RT_LOG.OHMM                 :  Deep Resistivity
~Parameter Information Block
#MNEM.UNIT            Value   Description
#---------- ----------------  -----------
PROJECT.     LFP@st-vlinapp01:  
SET  .                  LFP:  
~Other Information Block
# 
~A       DEPTH       LFP_CALI       LFP_DRHO   LFP_DTST_LOG    LFP_DTS_LOG     LFP_DT_LOG         LFP_GR       LFP_NPHI        LFP_PEF   LFP_RHOB_LOG         LFP_RM         LFP_RS     LFP_RT_LOG 
# ...
    2036.06400        12.2581       0.031907      -999.2500       313.6626       133.2932        54.7015       0.398363         5.3871         2.2980         0.7771         0.8500         0.7504
    2036.21640        12.2881       0.030569      -999.2500       324.2632       135.1130        49.3040       0.376435         5.1994         2.1915         0.6416         0.7118         0.6067
    2036.36880        12.2590       0.023240      -999.2500       340.7946       136.7171        53.4935       0.367311         4.9239         2.0460         0.5500         0.6104         0.5424
    2036.52120        12.2539       0.014163      -999.2500       328.2961       142.0698        56.1609       0.414638         4.6612         1.9878         0.4874         0.4709         0.5999
    2036.67360        12.2539      -0.009976      -999.2500       328.7082       147.0311        66.8141       0.426638         5.2237         1.9896         0.7126         0.4707         0.9306
    2036.82600        12.2760      -0.022894      -999.2500       336.8865       151.8604        62.9512       0.441400         5.4194         2.0450         1.1830         0.7547         1.0174
    2036.97840        12.3062       0.002088      -999.2500       338.3273       152.1898        58.4964       0.452524         5.6589         2.1594         0.8579         0.6753         0.7971
    2037.13080        12.2956       0.018764      -999.2500       335.0799       150.2032        53.7180       0.440504         5.9177         2.2296         0.7041         0.6349         0.6975
    2037.28320        12.2539       0.013930      -999.2500       318.0240       141.8532        60.1288       0.411023         6.1239         2.2477         0.7369         0.6448         0.7309
    2037.43560        12.2539       0.015698      -999.2500       307.3641       135.9887        55.8986       0.424996         6.0233         2.2895         0.7609         0.7028         0.7986
    2037.58800        12.2633       0.014931      -999.2500       309.7178       134.7606        52.0288       0.451503         5.4614         2.3203         0.8246         0.7827         0.8816
    2037.74040        12.2927       0.025805      -999.2500       310.9209       134.0390        50.6557       0.408553         5.7958         2.3376         0.7937         0.8483         0.8761
    2037.89280        12.2639       0.031803      -999.2500       307.8192       132.0669        49.2589       0.399498         5.9126         2.3441         0.7946         0.8627         0.8564
    2038.04520        12.3256       0.043616      -999.2500       306.8409       131.7649        37.1070       0.417722         6.6680         2.3401         0.8071         0.8650         0.8175
    2038.19760        12.4492       0.067300      -999.2500       305.5900       131.7707        38.4496       0.405392         7.9776         2.3282         0.7944         0.8512         0.8049
    2038.35000        12.2529       0.003937      -999.2500       307.0356       131.8616        47.9055       0.384308         5.1098         2.3043         0.7762         0.8169         0.7938
    2038.50240        12.2889       0.010179      -999.2500       311.6654       131.5925        44.2983       0.400534         5.3853         2.3061         0.7918         0.7891         0.8232
    2038.65480        12.3838       0.026629      -999.2500       314.4681       131.4482        43.0684       0.412029         6.1111         2.3110         0.7935         0.8136         0.8156
    2038.80720        12.3470       0.027895      -999.2500       315.4070       131.5166        47.0460       0.412005         5.9569         2.3231         0.7931         0.8350         0.8047
    2038.95960        12.3184       0.028881      -999.2500       314.6366       131.8108        54.7339       0.404422         5.8369         2.3326         0.7681         0.8270         0.7784
    2039.11200        12.3184       0.025493      -999.2500       310.2612       132.5827        51.0228       0.408122         6.1694         2.3052         0.7534         0.8042         0.7650
    2039.26440        12.2871       0.023584      -999.2500       309.8391       133.5632        55.6521       0.410236         6.1131         2.3000         0.7391         0.7867         0.7530
    2039.41680        12.2530       0.021511      -999.2500       309.5747       133.7824        52.9777       0.459072         6.0519         2.2944         0.7355         0.7892         0.7502
    2039.56920        12.3071       0.028363      -999.2500       309.9331       132.4922        49.4781       0.425038         5.9046         2.2967         0.7665         0.7956         0.7924
    2039.72160        12.2994       0.024289      -999.2500       310.0348       131.6319        46.2189       0.406545         5.8839         2.2968         0.7682         0.8062         0.7890
    2039.87400        12.2530       0.009279      -999.2500       310.8134       131.1345        45.4295       0.399736         5.8593         2.2951         0.7725         0.8197         0.7865
    2040.02640        12.2530       0.000558      -999.2500       310.1907       131.1108        60.0678       0.388404         5.5872         2.2907         0.7916         0.8248         0.8020
    2040.17880        12.2530       0.004053      -999.2500       305.3039       131.8452        57.6059       0.379037         5.0604         2.3150         0.7908         0.8374         0.8012
    2040.33120        12.2530       0.008100      -999.2500       303.1395       132.2549        57.6064       0.385237         5.2197         2.3167         0.8053         0.8508         0.8181
    2040.48360        12.2694       0.017648      -999.2500       304.7013       132.1754        52.6360       0.387125         5.5576         2.3135         0.8150         0.8624         0.8259
    2040.63600        12.3185       0.030065      -999.2500       308.1010       131.5770        52.9762       0.383381         5.0716         2.3264         0.7976         0.8530         0.8057
    2040.78840        12.2530       0.022632      -999.2500       315.7721       130.2017        54.5907       0.367624         5.5353         2.3303         0.7677         0.8253         0.7817
    2040.94080        12.2531       0.034083      -999.2500       316.8688       130.1357        52.8549       0.367917         6.0621         2.3134         0.7562         0.8015         0.7746
    2041.09320        12.2531       0.022910      -999.2500       312.7749       131.5826        68.0215       0.367917         5.6473         2.2882         0.7516         0.7922         0.7720
    2041.24560        12.2038       0.030055      -999.2500       312.1983       132.0842        62.4158       0.402519         5.2752         2.2818         0.7465         0.7818         0.7712
    2041.39800        12.2408       0.021197      -999.2500       312.8896       132.3736        66.8879       0.408197         5.8142         2.2603         0.7573         0.7797         0.7809
    2041.55040        12.2531       0.019778      -999.2500       309.5299       132.5286        71.9228       0.403597         6.1220         2.2530         0.7646         0.7866         0.7818
    2041.70280        12.2605       0.022284      -999.2500       311.5314       132.4415        84.4020       0.385282         5.5271         2.2776         0.7411         0.7820         0.7578
    2041.85520        12.2859       0.020484      -999.2500       315.8170       132.1887        87.1714       0.389471         5.4204         2.2861         0.7337         0.7733         0.7525
    2042.00760        12.2808       0.021309      -999.2500       314.3145       132.0947        63.9746       0.399381         5.6153         2.2905         0.7473         0.7793         0.7736
    2042.16000        12.2531       0.010137      -999.2500       310.2643       132.0413        57.7632       0.375185         5.6602         2.2805         0.7852         0.8086         0.8103
    2042.31240        12.2531       0.010457      -999.2500       306.7786       132.0330        54.9234       0.384732         5.1075         2.3147         0.8142         0.8476         0.8237
