~Version Information Block
VERS .                  2.0:  CWLS LOG ASCII STANDARD - VERSION 2.0
WRAP .                   NO:  One line per depth step
~Well Information Block
#MNEM.UNIT        Data Type   Information
#---------- ----------------  -----------
STRT .M          3064.61160:  START DEPTH
STOP .M          3593.28720:  STOP DEPTH
STEP .M             0.15240:  STEP
NULL .              -999.25:  NULL VALUE
COMP .                     :  COMPANY
WELL .          NO_31/1-3_S:  WELL
FLD  .                     :  FIELD
LOC  .                     :  LOCATION
CTRY .                     :  COUNTRY
STAT .                     :  STATE
CNTY .                     :  COUNTY
SRVC .                     :  SERVICE COMPANY
DATE .                     :  DATE
API  .                     :  API NUMBER
UWI  .                     :  UNIQUE WELL ID
~Curve Information Block
#MNEM.UNIT         API CODE   Curve Description
#---------- ----------------  -----------------
DEPTH.M                    :  Loaded from /private/inp/roever_soer_wells.unl.
LFP_K.%                    :  Potassium
LFP_TH.PPM                  :  Thorium
LFP_U.PPM                  :  Uranium
~Parameter Information Block
#MNEM.UNIT            Value   Description
#---------- ----------------  -----------
PROJECT.     LFP@st-vlinapp01:  
SET  .                  LFP:  
~Other Information Block
# 
~A       DEPTH          LFP_K         LFP_TH          LFP_U 
# ...
    3370.93560         2.4931         8.9671         2.9840
    3371.08800         2.6323         9.2524         3.1425
    3371.24040         2.6345         9.3907         3.3255
    3371.39280         2.5456         9.4956         3.5565
    3371.54520         2.4385         9.5254         3.7053
    3371.69760         2.3739         9.5301         3.7696
    3371.85000         2.4319         9.7781         3.5444
    3372.00240         2.5628         9.8830         3.2740
    3372.15480         2.6918         9.8281         3.1349
    3372.30720         2.7622         9.9143         3.0568
    3372.45960         2.8145        10.0439         2.9527
    3372.61200         2.8258        10.3628         2.8871
    3372.76440         2.8856        10.4443         2.8759
    3372.91680         2.9844        10.6658         2.7353
    3373.06920         3.1031        10.7874         2.6852
    3373.22160         3.2000        10.8849         2.6599
    3373.37400         3.1890        11.0177         2.7326
    3373.52640         3.0946        10.9295         2.9448
    3373.67880         2.9683        10.5324         3.1590
    3373.83120         2.7835        10.0234         3.4740
    3373.98360         2.6800         9.1266         3.8056
    3374.13600         2.6566         8.9373         3.7781
    3374.28840         2.7065         9.1845         3.6319
    3374.44080         2.8853         9.8622         3.1483
    3374.59320         3.0768        10.5944         2.6995
    3374.74560         3.1953        11.0443         2.5493
    3374.89800         3.2812        11.1992         2.5222
    3375.05040         3.2361        11.1431         2.7749
    3375.20280         3.1130        11.0155         3.1676
    3375.35520         3.0331        11.0840         3.3112
    3375.50760         2.9486        11.2096         3.3239
    3375.66000         2.8994        11.2750         3.1665
    3375.81240         2.9208        11.1715         2.8712
    3375.96480         2.9264        10.7249         2.7766
    3376.11720         2.9480        10.3502         2.7793
    3376.26960         2.9711        10.1830         2.8668
    3376.42200         2.9743        10.3929         3.0498
    3376.57440         3.0159        10.8745         3.1433
    3376.72680         3.0771        11.6673         3.0531
    3376.87920         3.1387        12.4146         2.8930
    3377.03160         3.1654        12.8369         2.7465
    3377.18400         3.1884        12.7163         2.7051
    3377.33640         3.2057        12.3763         2.6467
    3377.48880         3.2121        11.8042         2.6753
    3377.64120         3.2102        11.5580         2.6616
    3377.79360         3.1983        11.3655         2.6569
    3377.94600         3.1148        11.2530         2.8475
    3378.09840         3.0374        11.1388         3.1270
    3378.25080         3.0055        10.8354         3.3540
    3378.40320         3.0078        10.6779         3.5112
    3378.55560         3.0840        11.0229         3.2760
    3378.70800         3.1529        11.6600         2.8955
    3378.86040         3.1278        12.1659         2.7592
    3379.01280         3.1245        12.3473         2.7267
    3379.16520         3.1108        12.2203         2.8565
    3379.31760         3.0777        11.9987         3.0972
    3379.47000         3.1174        12.0980         3.0633
    3379.62240         3.1053        12.4538         3.0534
    3379.77480         3.0686        12.6495         3.1107
    3379.92720         2.9938        12.7030         3.1867
    3380.07960         2.8768        12.1885         3.3427
    3380.23200         2.7572        11.4125         3.4455
    3380.38440         2.6831        10.8999         3.3157
    3380.53680         2.6745        10.6702         3.1623
    3380.68920         2.7442        10.9006         2.9974
    3380.84160         2.8682        11.3832         2.9169
    3380.99400         3.0183        11.8166         2.8958
    3381.14640         3.1406        12.2518         2.8186
    3381.29880         3.2497        12.7152         2.5988
    3381.45120         3.3202        12.7193         2.4840
    3381.60360         3.3638        12.9182         2.2555
    3381.75600         3.3796        12.9199         2.2218
    3381.90840         3.3310        12.8099         2.3021
    3382.06080         3.2368        12.7071         2.4490
    3382.21320         3.1287        12.3836         2.7928
    3382.36560         3.0542        11.9614         3.0471
    3382.51800         3.0221        11.9353         3.0792
    3382.67040         3.0628        11.8406         3.0420
    3382.82280         3.1365        12.0375         2.8148
    3382.97520         3.1968        12.1835         2.7321
    3383.12760         3.2504        12.3369         2.7708
    3383.28000         3.2999        12.5076         2.8072
    3383.43240         3.3345        12.7070         2.8522
    3383.58480         3.3263        12.8069         2.9110
    3383.73720         3.3065        12.6468         2.9531
    3383.88960         3.2646        12.2825         3.0643
    3384.04200         3.2083        11.8274         3.2649
    3384.19440         3.1543        11.3212         3.5406
    3384.34680         3.1135        11.0344         3.8015
    3384.49920         3.0935        10.9601         4.0158
    3384.65160         3.1372        10.9652         4.0561
    3384.80400         3.2279        11.0167         3.8812
    3384.95640         3.3349        11.1410         3.5166
    3385.10880         3.4058        11.2128         3.0733
    3385.26120         3.3791        11.3600         2.7742
    3385.41360         3.2535        11.4401         2.7373
    3385.56600         3.1466        11.2943         2.8364
    3385.71840         3.0654        11.3925         2.9108
    3385.87080         3.0276        11.3718         3.0249
    3386.02320         3.0377        11.4116         3.0280
    3386.17560         3.0605        11.4816         3.0878
    3386.32800         3.0585        11.5276         3.2591
    3386.48040         3.0730        11.5273         3.4529
    3386.63280         3.0735        11.5356         3.6480
    3386.78520         3.1088        11.2673         3.8115
    3386.93760         3.1762        11.0658         3.7748
    3387.09000         3.2347        10.8988         3.6324
    3387.24240         3.2894        10.7627         3.4363
    3387.39480         3.3082        10.7664         3.2903
    3387.54720         3.2663        11.1872         3.1602
    3387.69960         3.2034        11.4735         3.1402
    3387.85200         3.1182        11.6115         3.1478
    3388.00440         3.0377        11.6628         3.0885
    3388.15680         2.9787        11.4721         3.0498
    3388.30920         2.9273        11.3360         2.9951
    3388.46160         2.8991        11.1077         2.9845
    3388.61400         2.8841        10.9180         3.0468
    3388.76640         2.8773        10.6948         3.0903
    3388.91880         2.8407        10.2104         3.1346
    3389.07120         2.7444         9.6251         3.1261
    3389.22360         2.6325         9.0518         3.0086
    3389.37600         2.5570         8.7187         2.8497
    3389.52840         2.5485         8.8396         2.7130
    3389.68080         2.6291         9.2128         2.6831
    3389.83320         2.7648         9.8431         2.6684
    3389.98560         2.9192        10.3786         2.5300
    3390.13800         3.0517        10.4710         2.3539
    3390.29040         3.1132        10.2734         2.2003
    3390.44280         3.1082         9.9632         2.0804
    3390.59520         3.0555         9.6382         2.1883
    3390.74760         2.9925         9.5900         2.3273
    3390.90000         2.9621         9.7300         2.4061
    3391.05240         2.9373         9.9720         2.4879
    3391.20480         2.9502        10.3968         2.4479
