~Version Information Block
VERS .                  2.0:  CWLS LOG ASCII STANDARD - VERSION 2.0
WRAP .                   NO:  One line per depth step
~Well Information Block
#MNEM.UNIT        Data Type   Information
#---------- ----------------  -----------
STRT .M          3064.61160:  START DEPTH
STOP .M          3593.28720:  STOP DEPTH
STEP .M             0.15240:  STEP
NULL .              -999.25:  NULL VALUE
COMP .                     :  COMPANY
WELL .          NO_31/1-3_S:  WELL
FLD  .                     :  FIELD
LOC  .                     :  LOCATION
CTRY .                     :  COUNTRY
STAT .                     :  STATE
CNTY .                     :  COUNTY
SRVC .                     :  SERVICE COMPANY
DATE .                     :  DATE
API  .                     :  API NUMBER
UWI  .                     :  UNIQUE WELL ID
~Curve Information Block
#MNEM.UNIT         API CODE   Curve Description
#---------- ----------------  -----------------
DEPTH.M                    :  Loaded from /private/inp/roever_soer_wells.unl.
LFP_K.%                    :  Potassium
LFP_TH.PPM                  :  Thorium
LFP_U.PPM                  :  Uranium
~Parameter Information Block
#MNEM.UNIT            Value   Description
#---------- ----------------  -----------
PROJECT.     LFP@st-vlinapp01:  
SET  .                  LFP:  
~Other Information Block
# 
~A       DEPTH          LFP_K         LFP_TH          LFP_U 
# ...
    3166.71960         1.3562         6.6084         3.5696
    3166.87200         1.3701         7.1514         3.3946
    3167.02440         1.3973         7.6230         3.2011
    3167.17680         1.4412         7.9959         2.9811
    3167.32920         1.4839         7.9172         2.8222
    3167.48160         1.5368         7.3829         2.8273
    3167.63400         1.6079         6.8139         2.9249
    3167.78640         1.6821         6.5268         3.0137
    3167.93880         1.7655         6.2914         3.2263
    3168.09120         1.8594         6.5899         3.2819
    3168.24360         1.8854         6.9767         3.3129
    3168.39600         1.8367         7.2569         3.4641
    3168.54840         1.7455         7.4663         3.6417
    3168.70080         1.6518         7.4057         3.9126
    3168.85320         1.6185         7.5073         4.1411
    3169.00560         1.6933         7.8695         4.1425
    3169.15800         1.8265         8.2862         4.0476
    3169.31040         1.9761         8.6655         3.8733
    3169.46280         2.0799         8.8065         3.6767
    3169.61520         2.0970         8.3569         3.6750
    3169.76760         2.0436         7.9496         3.6070
    3169.92000         1.9778         7.4677         3.4640
    3170.07240         1.9382         7.1498         3.1712
    3170.22480         1.9239         6.8459         2.7217
    3170.37720         1.9239         6.3586         2.2760
    3170.52960         1.8875         5.6079         1.9619
    3170.68200         1.7862         4.9537         1.7774
    3170.83440         1.6174         4.2914         1.8769
    3170.98680         1.4761         4.2005         2.0517
    3171.13920         1.4009         4.5080         2.3145
    3171.29160         1.4019         5.2359         2.6210
    3171.44400         1.4738         6.1988         2.8200
    3171.59640         1.5770         7.1563         2.9538
    3171.74880         1.6395         7.8466         3.0499
    3171.90120         1.6954         8.2563         3.0990
    3172.05360         1.7559         8.3650         3.1243
    3172.20600         1.8259         8.1460         3.1515
    3172.35840         1.9007         7.9444         3.1359
    3172.51080         1.9545         7.7617         3.0691
    3172.66320         1.9422         7.6043         2.9476
    3172.81560         1.8916         7.4986         2.8659
    3172.96800         1.7998         7.2095         2.9432
    3173.12040         1.7176         7.1023         3.0495
    3173.27280         1.6874         7.1944         3.1846
    3173.42520         1.6986         7.3677         3.2962
    3173.57760         1.7557         7.7073         3.3273
    3173.73000         1.8236         7.8941         3.3623
    3173.88240         1.8279         8.0052         3.4637
    3174.03480         1.8049         8.1839         3.5593
    3174.18720         1.7638         8.1862         3.7503
    3174.33960         1.7225         8.3884         3.8711
    3174.49200         1.7013         8.6374         4.0403
    3174.64440         1.6990         8.8833         4.1300
    3174.79680         1.7150         8.9918         4.1191
    3174.94920         1.7254         8.6461         4.1229
    3175.10160         1.7772         8.0104         3.9516
    3175.25400         1.8960         7.2756         3.6216
    3175.40640         2.0622         6.6162         3.2761
    3175.55880         2.2622         6.4008         2.8232
    3175.71120         2.4415         6.3053         2.5501
    3175.86360         2.5484         6.3546         2.4060
    3176.01600         2.6130         6.2215         2.3986
    3176.16840         2.6220         6.0600         2.5458
    3176.32080         2.6097         5.9526         2.7781
    3176.47320         2.6185         5.9992         2.9660
    3176.62560         2.6017         6.2642         3.2001
    3176.77800         2.5544         6.6415         3.4926
    3176.93040         2.5054         7.2609         3.6619
    3177.08280         2.4429         8.1273         3.7191
    3177.23520         2.4213         8.6276         3.7032
    3177.38760         2.4916         8.9531         3.3717
    3177.54000         2.5925         8.7817         3.0353
    3177.69240         2.7058         8.0759         2.7232
    3177.84480         2.7714         7.4370         2.4872
    3177.99720         2.7642         6.8038         2.5176
    3178.14960         2.6988         6.3286         2.6377
    3178.30200         2.6299         6.3324         2.6928
    3178.45440         2.5928         6.6085         2.7105
    3178.60680         2.5292         6.8865         2.8158
    3178.75920         2.4487         7.1778         2.9861
    3178.91160         2.3467         7.4005         3.2340
    3179.06400         2.1966         7.6141         3.4550
    3179.21640         2.0733         7.9947         3.5561
    3179.36880         1.9878         8.4731         3.5500
    3179.52120         1.9498         8.9199         3.4562
    3179.67360         1.9638         9.3292         3.3702
    3179.82600         1.9851         9.5968         3.3753
    3179.97840         1.9749         9.5233         3.4858
    3180.13080         1.9771         9.4322         3.5467
    3180.28320         1.9981         9.1994         3.5569
    3180.43560         2.0610         8.8428         3.4808
    3180.58800         2.1629         8.2857         3.2987
    3180.74040         2.2570         7.5684         3.0868
    3180.89280         2.2723         6.8297         2.9075
    3181.04520         2.1843         6.1735         2.6916
    3181.19760         1.9871         5.5324         2.5188
    3181.35000         1.7614         5.0063         2.2683
    3181.50240         1.5691         4.4215         1.8606
    3181.65480         1.4236         3.8248         1.4652
    3181.80720         1.3344         3.1902         1.1414
    3181.95960         1.2723         2.5579         0.9218
    3182.11200         1.2083         2.2853         0.8504
    3182.26440         1.1797         2.3200         0.8147
    3182.41680         1.1695         2.4750         0.8068
    3182.56920         1.1830         2.6820         0.8196
    3182.72160         1.2101         2.8412         0.8048
    3182.87400         1.2177         2.7121         0.8702
    3183.02640         1.2086         2.4389         0.9811
    3183.17880         1.1675         2.1242         1.1561
    3183.33120         1.1168         1.9701         1.3188
    3183.48360         1.0710         2.0213         1.4711
    3183.63600         1.0405         2.2161         1.6434
    3183.78840         1.1212         2.6707         1.6021
    3183.94080         1.2908         3.2004         1.5054
    3184.09320         1.5029         3.6118         1.3879
    3184.24560         1.7349         3.9741         1.2008
    3184.39800         1.8825         4.0600         1.1198
    3184.55040         1.9409         4.0558         1.0699
    3184.70280         1.9192         4.0551         1.0262
    3184.85520         1.7880         4.0591         1.1857
    3185.00760         1.6260         4.3993         1.3357
    3185.16000         1.4242         4.8487         1.6085
    3185.31240         1.1983         5.4052         1.9802
    3185.46480         1.0105         5.9569         2.3576
    3185.61720         0.9087         6.3813         2.6882
    3185.76960         0.9048         6.7178         2.9909
    3185.92200         1.0327         6.8450         3.1616
    3186.07440         1.2120         6.7707         3.3460
    3186.22680         1.4273         6.7948         3.2838
    3186.37920         1.6105         6.6483         3.0912
    3186.53160         1.6954         6.5028         2.8546
    3186.68400         1.6693         6.1340         2.6416
    3186.83640         1.5823         5.4641         2.6117
    3186.98880         1.4314         4.9124         2.8295
