~Version Information Block
VERS .                  2.0:  CWLS LOG ASCII STANDARD - VERSION 2.0
WRAP .                   NO:  One line per depth step
~Well Information Block
#MNEM.UNIT        Data Type   Information
#---------- ----------------  -----------
STRT .M           455.06640:  START DEPTH
STOP .M          3604.71720:  STOP DEPTH
STEP .M             0.15240:  STEP
NULL .              -999.25:  NULL VALUE
COMP .                     :  COMPANY
WELL .          NO_31/1-3_S:  WELL
FLD  .                     :  FIELD
LOC  .                     :  LOCATION
CTRY .                     :  COUNTRY
STAT .                     :  STATE
CNTY .                     :  COUNTY
SRVC .                     :  SERVICE COMPANY
DATE .                     :  DATE
API  .                     :  API NUMBER
UWI  .                     :  UNIQUE WELL ID
~Curve Information Block
#MNEM.UNIT         API CODE   Curve Description
#---------- ----------------  -----------------
DEPTH.M                    :  Loaded from /private/inp/roever_soer_wells.unl.
LFP_CALI.INCHES                 :  Caliper
LFP_DRHO.G/CM3                 :  Density Correction
LFP_DTST_LOG.US/FT                 :  DT Stonely
LFP_DTS_LOG.US/FT                 :  Shear slowness
LFP_DT_LOG.US/FT                 :  Compressional slowness
LFP_GR.API                  :  Gamma Ray (LFP_GR_1 Edited)
LFP_NPHI.V/V                  :  Neutron
LFP_PEF.B/E                  :  Photoelectric Factor
LFP_RHOB_LOG.G/CM3                 :  Density
LFP_RM.OHMM                 :  Medium Resistivity
LFP_RS.OHMM                 :  Shallow Resistivity
LFP_RT_LOG.OHMM                 :  Deep Resistivity
~Parameter Information Block
#MNEM.UNIT            Value   Description
#---------- ----------------  -----------
PROJECT.     LFP@st-vlinapp01:  
SET  .                  LFP:  
~Other Information Block
# 
~A       DEPTH       LFP_CALI       LFP_DRHO   LFP_DTST_LOG    LFP_DTS_LOG     LFP_DT_LOG         LFP_GR       LFP_NPHI        LFP_PEF   LFP_RHOB_LOG         LFP_RM         LFP_RS     LFP_RT_LOG 
# ...
    2861.76720        12.2458       0.040817      -999.2500       176.8046        98.6229       113.5666       0.349033         6.3333         2.5354         3.9795         4.3947         4.1896
    2861.91960        12.2457       0.031251      -999.2500       177.6070        99.1720       111.0583       0.342479         5.9790         2.5444         3.9256         4.3042         4.2012
    2862.07200        12.2457       0.025674      -999.2500       176.7892        99.5906       116.5313       0.315733         6.3724         2.5547         4.0492         4.2778         4.3638
    2862.22440        12.2458       0.013639      -999.2500       172.5474        99.6825       104.5745       0.313041         6.1780         2.5706         4.7973         4.6820         5.1154
    2862.37680        12.2457       0.020142      -999.2500       169.7026        99.0316        77.0838       0.299260         6.3536         2.6451         5.8474         5.6686         5.9158
    2862.52920        12.2409       0.017968      -999.2500       163.6310        95.9941        57.6584       0.232840         6.5673         2.6784         6.4385         7.5814         6.1769
    2862.68160        12.2012       0.014546      -999.2500       144.7390        86.0783        56.3173       0.191855         6.2931         2.7336         6.4216         8.8801         5.9941
    2862.83400        12.2358       0.033227      -999.2500       134.5986        79.8121        74.2196       0.171435         6.2864         2.7659         5.9699         8.6974         5.5399
    2862.98640        12.2687       0.054191      -999.2500       130.8725        75.0774        81.7957       0.204826         6.2170         2.7465         5.3236         6.7872         5.0418
    2863.13880        12.3189       0.052670      -999.2500       128.9038        70.6016        92.6075       0.234858         6.2942         2.6592         5.0887         5.8353         4.9491
    2863.29120        12.3207       0.049453      -999.2500       130.9561        70.9479        97.7592       0.286390         6.2570         2.5818         4.9895         5.3690         4.9810
    2863.44360        12.3106       0.049434      -999.2500       136.3902        73.6967        99.9617       0.300096         6.0686         2.5418         4.9901         5.1717         5.1825
    2863.59600        12.3106       0.046759      -999.2500       146.8571        80.2918       100.9877       0.314056         6.1545         2.5051         5.0281         5.2660         5.3295
    2863.74840        12.3106       0.036346      -999.2500       155.6017        85.7757       102.8117       0.321213         6.5605         2.4667         4.9719         5.6207         5.2321
    2863.90080        12.3107       0.029718      -999.2500       159.4656        88.2029        98.2281       0.315836         6.8081         2.4615         4.9469         5.5942         5.2066
    2864.05320        12.3106       0.025870      -999.2500       165.7725        92.1738        95.5557       0.337183         6.5163         2.4799         4.6200         5.2464         4.8799
    2864.20560        12.3106       0.024320      -999.2500       168.9694        94.1282        94.6442       0.320197         6.3533         2.4959         4.4445         5.0214         4.6979
    2864.35800        12.3106       0.029070      -999.2500       170.0795        94.6227        94.8486       0.310331         6.7179         2.5378         4.0974         4.5272         4.3308
    2864.51040        12.3106       0.030817      -999.2500       171.0964        94.5821        97.2275       0.314411         7.1695         2.5764         3.8725         4.0893         4.1816
    2864.66280        12.3105       0.063066      -999.2500       169.9009        93.2620       100.6929       0.313275         6.8946         2.6426         4.0743         4.1952         4.3835
    2864.81520        12.3106       0.030247      -999.2500       165.5242        89.6671        90.6793       0.309642         6.2899         2.6151         4.1634         4.3060         4.4460
    2864.96760        12.3106       0.022264      -999.2500       163.5828        87.6909        90.1167       0.295799         5.6358         2.5716         3.9772         4.3443         4.1926
    2865.12000        12.3190       0.062050      -999.2500       163.7528        86.6543       105.5919       0.292330         6.1937         2.6108         3.6603         4.1298         3.8860
    2865.27240        12.3754       0.052969      -999.2500       164.5361        85.3280       105.3711       0.286942         6.0780         2.5794         3.2840         3.6606         3.4653
    2865.42480        12.2765       0.027888      -999.2500       165.8811        85.3494       107.9795       0.308786         5.6018         2.5442         3.1599         3.3704         3.3474
    2865.57720        12.2956       0.027244      -999.2500       168.1702        85.9363       122.5985       0.295959         5.6226         2.5437         3.2321         3.3154         3.4376
    2865.72960        12.3106       0.037781      -999.2500       168.8872        86.4757       113.5629       0.307047         5.7408         2.5478         3.3674         3.4735         3.5396
    2865.88200        12.3369       0.046504      -999.2500       169.9634        87.2619        93.8266       0.328281         6.4560         2.5624         3.3321         3.6383         3.4778
    2866.03440        12.3618       0.045093      -999.2500       169.0989        87.8918        75.8667       0.328201         6.3238         2.5728         2.9720         3.4042         3.1113
    2866.18680        12.3754       0.044018      -999.2500       169.5511        89.3383        83.3361       0.313550         6.1025         2.5739         2.8501         3.1028         3.0009
    2866.33920        12.3559       0.040392      -999.2500       170.7824        91.6461        93.3202       0.320111         6.3001         2.5308         2.9527         3.0529         3.1070
    2866.49160        12.3018       0.021373      -999.2500       172.6419        92.9046        92.6177       0.319530         5.9747         2.5117         3.2730         3.3033         3.4057
    2866.64400        12.2459       0.004400      -999.2500       173.5318        93.2895        93.0390       0.297857         5.7944         2.5157         3.0526         3.3521         3.2482
    2866.79640        12.2459       0.019647      -999.2500       172.5291        92.5481        74.9185       0.330811         5.8455         2.5862         3.0307         3.3219         3.2461
    2866.94880        12.2583       0.025444      -999.2500       167.4579        91.1115       101.6174       0.306857         6.0871         2.6088         3.0331         3.2619         3.2727
    2867.10120        12.2877       0.031148      -999.2500       158.8315        88.1937        94.7419       0.278894         6.0336         2.6210         3.3405         3.4931         3.5057
    2867.25360        12.2511       0.035813      -999.2500       156.9038        85.4812        96.6572       0.251234         5.5867         2.6120         3.5948         3.8093         3.6920
    2867.40600        12.2033       0.053472      -999.2500       157.4890        83.9083       112.4727       0.269076         6.3659         2.5837         3.3343         3.7637         3.3871
    2867.55840        12.2115       0.051263      -999.2500       161.5653        87.8585       102.2955       0.256686         6.6121         2.5552         3.2313         3.6596         3.2830
    2867.71080        12.2849       0.044227      -999.2500       164.4323        90.9515       111.7586       0.281107         6.3463         2.5678         3.0331         3.3602         3.0753
    2867.86320        12.2538       0.025369      -999.2500       166.3034        96.0157       100.0522       0.301320         6.2200         2.5535         2.7359         2.9823         2.8280
    2868.01560        12.2549       0.013221      -999.2500       165.5562        96.9959        91.3738       0.298075         6.2035         2.5632         2.6260         2.8190         2.7321
