~Version Information Block
VERS .                  2.0:  CWLS LOG ASCII STANDARD - VERSION 2.0
WRAP .                   NO:  One line per depth step
~Well Information Block
#MNEM.UNIT        Data Type   Information
#---------- ----------------  -----------
STRT .M           455.06640:  START DEPTH
STOP .M          3604.71720:  STOP DEPTH
STEP .M             0.15240:  STEP
NULL .              -999.25:  NULL VALUE
COMP .                     :  COMPANY
WELL .          NO_31/1-3_S:  WELL
FLD  .                     :  FIELD
LOC  .                     :  LOCATION
CTRY .                     :  COUNTRY
STAT .                     :  STATE
CNTY .                     :  COUNTY
SRVC .                     :  SERVICE COMPANY
DATE .                     :  DATE
API  .                     :  API NUMBER
UWI  .                     :  UNIQUE WELL ID
~Curve Information Block
#MNEM.UNIT         API CODE   Curve Description
#---------- ----------------  -----------------
DEPTH.M                    :  Loaded from /private/inp/roever_soer_wells.unl.
LFP_CALI.INCHES                 :  Caliper
LFP_DRHO.G/CM3                 :  Density Correction
LFP_DTST_LOG.US/FT                 :  DT Stonely
LFP_DTS_LOG.US/FT                 :  Shear slowness
LFP_DT_LOG.US/FT                 :  Compressional slowness
LFP_GR.API                  :  Gamma Ray (LFP_GR_1 Edited)
LFP_NPHI.V/V                  :  Neutron
LFP_PEF.B/E                  :  Photoelectric Factor
LFP_RHOB_LOG.G/CM3                 :  Density
LFP_RM.OHMM                 :  Medium Resistivity
LFP_RS.OHMM                 :  Shallow Resistivity
LFP_RT_LOG.OHMM                 :  Deep Resistivity
~Parameter Information Block
#MNEM.UNIT            Value   Description
#---------- ----------------  -----------
PROJECT.     LFP@st-vlinapp01:  
SET  .                  LFP:  
~Other Information Block
# 
~A       DEPTH       LFP_CALI       LFP_DRHO   LFP_DTST_LOG    LFP_DTS_LOG     LFP_DT_LOG         LFP_GR       LFP_NPHI        LFP_PEF   LFP_RHOB_LOG         LFP_RM         LFP_RS     LFP_RT_LOG 
# ...
    1799.23440        13.4484       0.019641      -999.2500       367.6962       143.1353        58.3006       0.465297         5.5976         2.1775         0.6309         0.6985         0.6335
    1799.38680        13.2491       0.015044      -999.2500       374.8162       142.8283        53.8740       0.504421         5.5867         2.1847         0.6617         0.7025         0.6447
    1799.53920        13.0218       0.023295      -999.2500       379.3796       142.4671        51.5737       0.451981         5.7073         2.2012         0.6575         0.7005         0.6501
    1799.69160        12.3115       0.032384      -999.2500       381.0836       142.2775        51.9379       0.446171         6.2552         2.2241         0.6564         0.7057         0.6549
    1799.84400        12.2233       0.026017      -999.2500       377.2341       142.0192        54.3078       0.442288         6.3792         2.2005         0.6451         0.7036         0.6501
    1799.99640        12.1850       0.007632      -999.2500       381.5843       141.8641        64.9595       0.442366         5.9127         2.1860         0.6460         0.7025         0.6547
    1800.14880        12.2250       0.003648      -999.2500       386.8581       141.8891        62.1135       0.445801         5.8607         2.1918         0.6400         0.6957         0.6465
    1800.30120        12.2575       0.018575      -999.2500       387.8827       142.3371        51.9897       0.428623         6.0088         2.2052         0.6326         0.6909         0.6353
    1800.45360        12.2553       0.028773      -999.2500       385.5184       142.5626        44.3561       0.420704         6.5990         2.2118         0.6083         0.6727         0.6180
    1800.60600        12.2291       0.032075      -999.2500       381.3948       142.8353        58.0989       0.487023         6.3309         2.2368         0.5985         0.6500         0.6164
    1800.75840        12.2368       0.024340      -999.2500       368.4955       142.7764        50.8096       0.537911         6.0823         2.2211         0.6133         0.6627         0.6420
    1800.91080        12.2803       0.022164      -999.2500       367.1205       142.5105        60.7113       0.402995         6.2058         2.2129         0.6445         0.6991         0.6678
    1801.06320        12.2877       0.020673      -999.2500       376.6646       142.1402        52.0533       0.470908         6.1134         2.2346         0.6424         0.7115         0.6505
    1801.21560        12.2877       0.020311      -999.2500       379.6713       141.7861        53.9058       0.494716         6.0198         2.2296         0.6360         0.6999         0.6399
    1801.36800        12.2877       0.011224      -999.2500       381.1634       143.5967        51.1407       0.472699         5.9462         2.2108         0.6299         0.6900         0.6237
    1801.52040        12.2877       0.035690      -999.2500       378.0897       144.7451        46.5404       0.485974         6.0260         2.2084         0.6130         0.6741         0.6173
    1801.67280        12.2877       0.040228      -999.2500       379.7035       144.3502        54.9648       0.456180         6.2838         2.1819         0.6210         0.6775         0.6408
    1801.82520        12.2877       0.032068      -999.2500       378.4944       143.5919        46.7422       0.424392         6.7120         2.1485         0.6603         0.7088         0.6840
    1801.97760        12.2715       0.022801      -999.2500       375.1945       142.7503        45.2564       0.446658         6.6508         2.2084         0.7110         0.7701         0.7211
    1802.13000        12.2799       0.027501      -999.2500       371.1344       141.4787        43.0392       0.433057         6.6391         2.2352         0.7159         0.7980         0.7159
    1802.28240        12.2878       0.040495      -999.2500       366.9252       141.0407        47.2075       0.453100         6.7544         2.2630         0.7128         0.7940         0.7121
    1802.43480        12.3162       0.045143      -999.2500       358.4489       140.7975        53.8190       0.501193         7.0850         2.2661         0.7136         0.7869         0.7113
    1802.58720        12.3119       0.060538      -999.2500       347.5058       140.6153        51.9977       0.449028         7.1619         2.2589         0.6992         0.7704         0.7003
    1802.73960        12.2672       0.055757      -999.2500       370.7059       139.5985        49.7969       0.472223         7.3920         2.2540         0.6964         0.7622         0.7032
    1802.89200        12.2387       0.037702      -999.2500       372.9400       140.2352        61.4077       0.484786         6.5697         2.2482         0.6793         0.7455         0.6928
    1803.04440        12.2882       0.014474      -999.2500       371.3616       141.4176        56.5171       0.474203         6.7552         2.1924         0.6918         0.7473         0.7043
    1803.19680        12.3608       0.026544      -999.2500       368.4974       142.9579        55.7242       0.477819         5.8231         2.2085         0.6586         0.7348         0.6537
    1803.34920        12.4358       0.025845      -999.2500       367.0330       144.4276        53.5949       0.482898         6.1244         2.1816         0.6344         0.7075         0.6401
    1803.50160        12.4038       0.038451      -999.2500       370.3169       146.7178        60.4804       0.478860         6.6444         2.2142         0.6367         0.6808         0.6595
    1803.65400        12.2693       0.025847      -999.2500       374.4678       148.1774        55.1006       0.429670         6.0385         2.2235         0.6851         0.7208         0.6874
    1803.80640        12.2488       0.022908      -999.2500       372.6162       145.0548        53.9938       0.447509         5.7962         2.2155         0.6319         0.7186         0.6230
    1803.95880        12.3097       0.014229      -999.2500       374.4422       143.6714        55.4700       0.476911         5.8254         2.1947         0.5835         0.6740         0.5900
    1804.11120        12.3013       0.013757      -999.2500       379.9786       142.8181        53.0153       0.539567         5.9592         2.2018         0.5929         0.6445         0.6031
    1804.26360        12.2284      -0.000347      -999.2500       382.8830       143.6776        63.7792       0.525652         5.6965         2.1933         0.5890         0.6357         0.6022
    1804.41600        12.1523      -0.000371      -999.2500       384.0271       144.2468        57.8491       0.471023         5.0827         2.2143         0.6170         0.6565         0.6365
    1804.56840        12.1324       0.000163      -999.2500       379.0965       145.1429        53.6055       0.492136         4.8289         2.2256         0.6580         0.6996         0.6793
    1804.72080        12.2285      -0.001155      -999.2500       377.0804       145.6861        56.3191       0.523934         5.2774         2.2277         0.6862         0.7374         0.6969
    1804.87320        12.2285      -0.008659      -999.2500       375.3454       146.3838        48.6606       0.449394         5.6128         2.2371         0.6675         0.7344         0.6733
    1805.02560        12.2285       0.018620      -999.2500       374.5553       144.7215        49.6498       0.479286         5.7836         2.2546         0.6612         0.7255         0.6643
    1805.17800        12.2364       0.013860      -999.2500       375.1239       143.7501        54.6952       0.460206         5.6338         2.2370         0.6539         0.7072         0.6556
    1805.33040        12.2672       0.021402      -999.2500       382.5294       144.1039        53.3744       0.459823         5.8998         2.2351         0.6438         0.6921         0.6576
    1805.48280        12.2149       0.010121      -999.2500       384.5585       144.3103        61.1759       0.429161         5.6015         2.2322         0.6621         0.7025         0.6767
