~Version Information Block
VERS .                  2.0:  CWLS LOG ASCII STANDARD - VERSION 2.0
WRAP .                   NO:  One line per depth step
~Well Information Block
#MNEM.UNIT        Data Type   Information
#---------- ----------------  -----------
STRT .M          3064.61160:  START DEPTH
STOP .M          3593.28720:  STOP DEPTH
STEP .M             0.15240:  STEP
NULL .              -999.25:  NULL VALUE
COMP .                     :  COMPANY
WELL .          NO_31/1-3_S:  WELL
FLD  .                     :  FIELD
LOC  .                     :  LOCATION
CTRY .                     :  COUNTRY
STAT .                     :  STATE
CNTY .                     :  COUNTY
SRVC .                     :  SERVICE COMPANY
DATE .                     :  DATE
API  .                     :  API NUMBER
UWI  .                     :  UNIQUE WELL ID
~Curve Information Block
#MNEM.UNIT         API CODE   Curve Description
#---------- ----------------  -----------------
DEPTH.M                    :  Loaded from /private/inp/roever_soer_wells.unl.
LFP_K.%                    :  Potassium
LFP_TH.PPM                  :  Thorium
LFP_U.PPM                  :  Uranium
~Parameter Information Block
#MNEM.UNIT            Value   Description
#---------- ----------------  -----------
PROJECT.     LFP@st-vlinapp01:  
SET  .                  LFP:  
~Other Information Block
# 
~A       DEPTH          LFP_K         LFP_TH          LFP_U 
# ...
    3411.77880         2.8937        15.6147         3.7472
    3411.93120         3.0879        16.0123         3.6752
    3412.08360         3.2874        16.0344         3.7052
    3412.23600         3.4076        15.5862         3.9155
    3412.38840         3.4799        15.0519         4.2220
    3412.54080         3.5381        14.8293         4.4073
    3412.69320         3.5112        15.1528         4.5960
    3412.84560         3.4712        16.3127         4.6077
    3412.99800         3.4105        18.0275         4.4628
    3413.15040         3.2614        19.6374         4.5495
    3413.30280         3.0657        21.4783         4.6587
    3413.45520         2.8367        23.0720         4.9264
    3413.60760         2.5920        24.4377         5.3101
    3413.76000         2.4232        25.8964         5.3548
    3413.91240         2.3799        26.2771         5.1312
    3414.06480         2.4243        25.2449         4.6681
    3414.21720         2.5250        22.9756         4.0083
    3414.36960         2.5706        19.5626         3.5937
    3414.52200         2.5552        16.3383         3.3806
    3414.67440         2.4872        13.9089         3.4706
    3414.82680         2.4188        12.5410         3.5919
    3414.97920         2.3199        11.9499         3.6497
    3415.13160         2.2517        11.6313         3.3935
    3415.28400         2.1643        10.9451         3.0604
    3415.43640         2.0438        10.3101         2.6440
    3415.58880         1.9180         9.7077         2.3597
    3415.74120         1.7944         9.2512         2.2322
    3415.89360         1.6745         9.0240         2.1891
    3416.04600         1.6287         8.7974         2.0404
    3416.19840         1.5398         8.0516         2.0260
    3416.35080         1.4794         7.1619         1.7635
    3416.50320         1.4262         5.9964         1.5248
    3416.65560         1.3612         5.0448         1.3324
    3416.80800         1.3510         4.5082         1.1441
    3416.96040         1.3637         4.2454         1.1933
    3417.11280         1.3799         4.3771         1.3629
    3417.26520         1.4027         4.4668         1.5847
    3417.41760         1.3994         4.3779         1.9017
    3417.57000         1.3762         4.2762         2.1045
    3417.72240         1.3646         4.2443         2.1434
    3417.87480         1.3766         4.3906         2.0024
    3418.02720         1.3957         4.5764         1.7235
    3418.17960         1.4049         4.5535         1.4965
    3418.33200         1.4099         4.3998         1.3268
    3418.48440         1.3818         4.1647         1.2776
    3418.63680         1.3414         4.0170         1.3014
    3418.78920         1.3082         4.0995         1.3396
    3418.94160         1.2832         4.4463         1.2997
    3419.09400         1.2832         4.7795         1.2067
    3419.24640         1.3230         4.8148         1.0987
    3419.39880         1.3512         4.4385         1.0913
    3419.55120         1.3525         3.8676         1.2268
    3419.70360         1.3504         3.3807         1.3756
    3419.85600         1.3060         3.1195         1.5242
    3420.00840         1.2803         3.1147         1.5773
    3420.16080         1.2837         3.1613         1.5485
    3420.31320         1.2873         3.2434         1.4859
    3420.46560         1.3184         3.2889         1.4166
    3420.61800         1.3419         3.2530         1.3995
    3420.77040         1.3563         3.2806         1.4006
    3420.92280         1.3718         3.4303         1.3957
    3421.07520         1.3411         3.5686         1.4459
    3421.22760         1.3016         3.6070         1.4953
    3421.38000         1.2451         3.6312         1.5648
    3421.53240         1.1926         3.5321         1.6288
    3421.68480         1.1538         3.2889         1.7544
    3421.83720         1.1264         3.0045         1.9313
    3421.98960         1.1253         2.8578         2.0397
    3422.14200         1.1438         2.9266         2.0993
    3422.29440         1.1765         3.2519         1.9961
    3422.44680         1.2253         3.5695         1.7887
    3422.59920         1.2796         3.7366         1.5955
    3422.75160         1.3099         3.7095         1.4734
    3422.90400         1.2699         3.5821         1.5516
    3423.05640         1.2263         3.3977         1.6955
    3423.20880         1.1765         3.5126         1.7674
    3423.36120         1.1500         3.6712         1.7708
    3423.51360         1.1732         3.8400         1.6289
    3423.66600         1.2116         3.8941         1.4725
    3423.81840         1.2412         3.8581         1.3758
    3423.97080         1.2699         3.8865         1.2854
    3424.12320         1.2746         3.8482         1.3062
    3424.27560         1.2845         3.7744         1.3024
    3424.42800         1.2820         3.6567         1.3053
    3424.58040         1.2878         3.4349         1.3190
    3424.73280         1.3125         3.2544         1.2912
    3424.88520         1.3382         3.0615         1.3263
    3425.03760         1.4004         3.0075         1.2720
    3425.19000         1.4495         3.1108         1.1860
    3425.34240         1.4860         3.1198         1.1965
    3425.49480         1.5168         3.4206         1.1149
    3425.64720         1.5180         3.7424         1.1361
    3425.79960         1.5239         4.1188         1.2232
    3425.95200         1.5817         4.4749         1.2409
    3426.10440         1.6338         4.7125         1.3183
    3426.25680         1.6562         4.7609         1.4864
    3426.40920         1.6459         4.7989         1.5889
    3426.56160         1.5886         4.8963         1.6953
    3426.71400         1.5261         5.1309         1.6987
    3426.86640         1.4837         5.3299         1.6283
    3427.01880         1.4723         5.4472         1.5908
    3427.17120         1.4953         5.3160         1.6107
    3427.32360         1.5455         5.1767         1.6130
    3427.47600         1.5900         5.0294         1.7031
    3427.62840         1.6349         5.0184         1.7657
    3427.78080         1.6566         5.2128         1.8044
    3427.93320         1.6452         5.6158         1.8427
    3428.08560         1.6115         6.0741         1.8891
    3428.23800         1.5985         6.3191         1.9308
    3428.39040         1.6269         6.4614         1.8964
    3428.54280         1.6616         6.5703         1.8531
    3428.69520         1.6593         6.5537         1.8876
    3428.84760         1.6188         6.5103         1.9716
    3429.00000         1.5722         6.2800         2.1005
    3429.15240         1.5286         5.9674         2.1915
    3429.30480         1.5383         5.6181         2.1352
    3429.45720         1.5370         5.2547         2.1132
    3429.60960         1.5325         5.0541         2.0967
    3429.76200         1.5547         5.0623         2.0194
    3429.91440         1.5845         4.9357         1.9669
    3430.06680         1.6232         4.7304         1.9215
    3430.21920         1.6582         4.3811         1.8786
    3430.37160         1.6409         4.1185         1.8287
    3430.52400         1.5981         4.0738         1.7277
    3430.67640         1.5499         4.4400         1.5437
    3430.82880         1.5221         4.8641         1.3627
    3430.98120         1.5179         5.0512         1.2922
    3431.13360         1.5428         4.8845         1.3508
    3431.28600         1.5489         4.2929         1.6145
    3431.43840         1.5274         3.6985         1.9327
    3431.59080         1.5204         3.5129         2.1084
    3431.74320         1.5093         3.5834         2.1498
    3431.89560         1.5142         3.9830         2.0120
    3432.04800         1.5404         4.2818         1.8377
