~Version Information Block
VERS .                  2.0:  CWLS LOG ASCII STANDARD - VERSION 2.0
WRAP .                   NO:  One line per depth step
~Well Information Block
#MNEM.UNIT        Data Type   Information
#---------- ----------------  -----------
STRT .M          3064.61160:  START DEPTH
STOP .M          3593.28720:  STOP DEPTH
STEP .M             0.15240:  STEP
NULL .              -999.25:  NULL VALUE
COMP .                     :  COMPANY
WELL .          NO_31/1-3_S:  WELL
FLD  .                     :  FIELD
LOC  .                     :  LOCATION
CTRY .                     :  COUNTRY
STAT .                     :  STATE
CNTY .                     :  COUNTY
SRVC .                     :  SERVICE COMPANY
DATE .                     :  DATE
API  .                     :  API NUMBER
UWI  .                     :  UNIQUE WELL ID
~Curve Information Block
#MNEM.UNIT         API CODE   Curve Description
#---------- ----------------  -----------------
DEPTH.M                    :  Loaded from /private/inp/roever_soer_wells.unl.
LFP_K.%                    :  Potassium
LFP_TH.PPM                  :  Thorium
LFP_U.PPM                  :  Uranium
~Parameter Information Block
#MNEM.UNIT            Value   Description
#---------- ----------------  -----------
PROJECT.     LFP@st-vlinapp01:  
SET  .                  LFP:  
~Other Information Block
# 
~A       DEPTH          LFP_K         LFP_TH          LFP_U 
# ...
    3227.98440         2.0478        11.9548         3.2928
    3228.13680         1.9794        11.4012         3.7289
    3228.28920         1.8905        10.9510         4.0041
    3228.44160         1.7966        10.5617         4.2772
    3228.59400         1.8080        10.4328         4.3654
    3228.74640         1.9175        11.3436         4.1387
    3228.89880         2.0926        12.0961         4.0856
    3229.05120         2.3022        12.7777         4.0528
    3229.20360         2.4372        13.2810         4.0727
    3229.35600         2.4784        12.9242         4.1975
    3229.50840         2.3969        11.9865         4.2091
    3229.66080         2.1871        10.7978         4.0269
    3229.81320         1.8613         8.9854         3.7474
    3229.96560         1.4886         7.4138         3.2252
    3230.11800         1.1405         5.9448         2.6178
    3230.27040         0.9200         4.9576         1.8939
    3230.42280         0.8761         4.9291         1.3566
    3230.57520         1.0267         5.7161         1.3073
    3230.72760         1.3425         7.0040         1.8802
    3230.88000         1.7825         8.6887         2.8659
    3231.03240         2.2126        10.2106         3.8308
    3231.18480         2.5035        11.6539         4.3370
    3231.33720         2.6293        12.7175         4.3124
    3231.48960         2.5891        13.1866         3.9229
    3231.64200         2.4101        13.0424         3.5746
    3231.79440         2.2166        12.3418         3.4404
    3231.94680         2.0906        11.6275         3.4122
    3232.09920         1.9951        10.9549         3.2877
    3232.25160         1.9286        10.1685         3.0204
    3232.40400         1.8115         9.2934         2.6069
    3232.55640         1.6161         7.9712         2.1789
    3232.70880         1.4207         6.4819         1.9571
    3232.86120         1.2620         5.4469         1.9165
    3233.01360         1.1805         5.0309         1.9532
    3233.16600         1.2070         5.1187         2.1337
    3233.31840         1.3031         5.3987         2.1683
    3233.47080         1.4399         5.9000         2.1520
    3233.62320         1.5592         6.3240         2.3002
    3233.77560         1.6988         6.7484         2.3985
    3233.92800         1.7893         7.0983         2.4437
    3234.08040         1.8167         7.1033         2.3892
    3234.23280         1.7665         6.7540         2.1321
    3234.38520         1.6708         6.3814         1.9329
    3234.53760         1.6120         6.0111         2.0183
    3234.69000         1.6695         6.0977         2.3872
    3234.84240         1.8376         6.9101         2.9089
    3234.99480         2.1033         8.0593         3.4579
    3235.14720         2.3658         9.3608         3.7949
    3235.29960         2.5307        10.6419         3.9469
    3235.45200         2.5778        11.4422         4.0997
    3235.60440         2.5414        12.0255         4.1755
    3235.75680         2.4818        12.5691         4.1584
    3235.90920         2.4669        12.9372         4.1019
    3236.06160         2.4952        13.2556         3.9926
    3236.21400         2.5390        13.4947         3.7986
    3236.36640         2.5140        13.2985         3.6529
    3236.51880         2.3630        12.9317         3.5132
    3236.67120         2.1589        12.5131         3.2570
    3236.82360         1.9626        11.9537         3.0313
    3236.97600         1.8156        11.3268         2.9575
    3237.12840         1.7673        10.6640         2.9442
    3237.28080         1.8082         9.7746         3.0790
    3237.43320         1.9171         9.1748         3.0979
    3237.58560         2.0058         8.8501         3.0435
    3237.73800         2.0578         8.7424         3.0070
    3237.89040         2.0432         9.0200         2.9804
    3238.04280         1.9762         9.3416         3.0689
    3238.19520         1.9152         9.5459         3.2921
    3238.34760         1.9661         9.9195         3.3585
    3238.50000         2.1132         9.9803         3.4598
    3238.65240         2.3650        10.0426         3.4302
    3238.80480         2.5937         9.7862         3.3597
    3238.95720         2.6834         9.2499         3.2450
    3239.10960         2.6525         8.7552         2.9069
    3239.26200         2.5195         8.2796         2.4575
    3239.41440         2.3085         7.8253         2.1233
    3239.56680         2.1578         7.4757         1.9075
    3239.71920         2.0423         7.2436         1.8415
    3239.87160         1.9624         7.1000         1.9422
    3240.02400         1.9214         7.0611         2.0972
    3240.17640         1.8923         6.9983         2.2719
    3240.32880         1.8573         6.7298         2.5926
    3240.48120         1.8859         6.5796         2.7840
    3240.63360         1.9470         6.3159         2.9731
    3240.78600         1.9907         6.0473         3.1830
    3240.93840         2.0207         6.0393         3.2704
    3241.09080         1.9829         5.8755         3.5166
    3241.24320         1.9305         5.9431         3.6362
    3241.39560         1.9250         6.4409         3.4942
    3241.54800         1.9192         7.0050         3.4235
    3241.70040         1.9501         7.8582         3.2682
    3241.85280         1.9781         8.8291         3.3123
    3242.00520         1.9444         9.6738         3.6480
    3242.15760         1.9135        10.5177         4.0788
    3242.31000         1.9044        11.2016         4.5216
    3242.46240         1.8940        11.5394         4.8701
    3242.61480         1.9306        11.7145         4.9192
    3242.76720         1.9491        11.4802         4.8823
    3242.91960         1.9577        11.1628         4.6054
    3243.07200         1.9571        10.8609         4.1909
    3243.22440         1.9239        10.3161         3.8028
    3243.37680         1.8593         9.4786         3.5126
    3243.52920         1.7737         8.3195         3.3619
    3243.68160         1.7505         7.0193         3.2836
    3243.83400         1.7999         6.0014         3.2027
    3243.98640         1.9132         5.4061         3.2425
    3244.13880         2.1137         5.6532         3.3650
    3244.29120         2.3654         6.8427         3.4055
    3244.44360         2.6832         8.7522         3.3145
    3244.59600         2.9638        10.7731         3.2615
    3244.74840         3.1596        12.6976         3.0345
    3244.90080         3.2318        13.7535         2.9332
    3245.05320         3.0435        13.5738         3.1599
    3245.20560         2.6871        12.4849         3.2762
    3245.35800         2.2038        10.5978         3.4209
    3245.51040         1.6722         8.3498         3.2883
    3245.66280         1.2198         6.4434         2.7833
    3245.81520         0.8564         4.7082         2.2985
    3245.96760         0.6506         3.4479         1.7740
    3246.12000         0.6100         2.5963         1.3416
    3246.27240         0.6797         1.9734         1.0561
    3246.42480         0.8124         1.6522         0.7793
    3246.57720         0.9507         1.4754         0.6071
    3246.72960         1.0462         1.4527         0.5379
    3246.88200         1.0990         1.5303         0.6162
    3247.03440         1.0962         1.7259         0.8212
    3247.18680         1.0897         2.0959         1.0980
    3247.33920         1.1173         2.4226         1.3678
    3247.49160         1.1627         2.6343         1.5451
    3247.64400         1.2217         2.7398         1.6612
    3247.79640         1.2775         2.6592         1.6743
    3247.94880         1.3172         2.5251         1.6233
    3248.10120         1.3470         2.4311         1.4877
    3248.25360         1.3653         2.2518         1.3556
