~Version Information Block
VERS .                  2.0:  CWLS LOG ASCII STANDARD - VERSION 2.0
WRAP .                   NO:  One line per depth step
~Well Information Block
#MNEM.UNIT        Data Type   Information
#---------- ----------------  -----------
STRT .M           455.06640:  START DEPTH
STOP .M          3604.71720:  STOP DEPTH
STEP .M             0.15240:  STEP
NULL .              -999.25:  NULL VALUE
COMP .                     :  COMPANY
WELL .          NO_31/1-3_S:  WELL
FLD  .                     :  FIELD
LOC  .                     :  LOCATION
CTRY .                     :  COUNTRY
STAT .                     :  STATE
CNTY .                     :  COUNTY
SRVC .                     :  SERVICE COMPANY
DATE .                     :  DATE
API  .                     :  API NUMBER
UWI  .                     :  UNIQUE WELL ID
~Curve Information Block
#MNEM.UNIT         API CODE   Curve Description
#---------- ----------------  -----------------
DEPTH.M                    :  Loaded from /private/inp/roever_soer_wells.unl.
LFP_CALI.INCHES                 :  Caliper
LFP_DRHO.G/CM3                 :  Density Correction
LFP_DTST_LOG.US/FT                 :  DT Stonely
LFP_DTS_LOG.US/FT                 :  Shear slowness
LFP_DT_LOG.US/FT                 :  Compressional slowness
LFP_GR.API                  :  Gamma Ray (LFP_GR_1 Edited)
LFP_NPHI.V/V                  :  Neutron
LFP_PEF.B/E                  :  Photoelectric Factor
LFP_RHOB_LOG.G/CM3                 :  Density
LFP_RM.OHMM                 :  Medium Resistivity
LFP_RS.OHMM                 :  Shallow Resistivity
LFP_RT_LOG.OHMM                 :  Deep Resistivity
~Parameter Information Block
#MNEM.UNIT            Value   Description
#---------- ----------------  -----------
PROJECT.     LFP@st-vlinapp01:  
SET  .                  LFP:  
~Other Information Block
# 
~A       DEPTH       LFP_CALI       LFP_DRHO   LFP_DTST_LOG    LFP_DTS_LOG     LFP_DT_LOG         LFP_GR       LFP_NPHI        LFP_PEF   LFP_RHOB_LOG         LFP_RM         LFP_RS     LFP_RT_LOG 
# ...
    2624.93760        12.2213       0.026605      -999.2500       208.6649        99.6442        42.9224       0.255547         5.4495         2.5105         1.3287         1.4407         1.3359
    2625.09000        12.1821       0.029294      -999.2500       209.5643        99.4802        45.3398       0.249444         5.4393         2.5212         1.3225         1.4230         1.3364
    2625.24240        12.2184       0.027673      -999.2500       209.8261        99.7920        54.3832       0.257700         5.5402         2.5065         1.3148         1.3926         1.3427
    2625.39480        12.2039       0.039071      -999.2500       210.0008       100.3031        48.4283       0.263867         5.8353         2.5255         1.3320         1.3900         1.3575
    2625.54720        12.1821       0.037415      -999.2500       210.2061       100.2926        54.0829       0.264842         5.8718         2.5327         1.3429         1.3986         1.3727
    2625.69960        12.1821       0.029708      -999.2500       210.2988        99.8278        44.5461       0.269643         5.7011         2.5159         1.3308         1.4274         1.3803
    2625.85200        12.1821       0.023887      -999.2500       211.5205        99.7404        44.3274       0.268445         5.5761         2.5033         1.3360         1.4387         1.3935
    2626.00440        12.1875       0.012893      -999.2500       209.8571        98.9897        48.8430       0.244911         5.7043         2.5200         1.4613         1.4611         1.5504
    2626.15680        12.2174       0.004327      -999.2500       200.5176        95.7574        44.5327       0.260049         6.4497         2.5981         1.7575         1.6365         1.8089
    2626.30920        12.1973       0.047227      -999.2500       193.0143        93.0258        40.9877       0.222853         5.5797         2.6408         1.9346         1.8851         1.8486
    2626.46160        12.1566       0.029021      -999.2500       192.7430        91.9636        45.0913       0.222178         5.5118         2.5256         1.5939         1.8286         1.4864
    2626.61400        12.1254      -0.004838      -999.2500       201.4378        93.8466        43.6889       0.229534         4.6603         2.4659         1.2790         1.4730         1.2642
    2626.76640        12.1173      -0.004271      -999.2500       213.8144        98.0172        43.4925       0.245709         4.6345         2.4695         1.2252         1.2549         1.2311
    2626.91880        12.1252       0.006801      -999.2500       221.8316       101.0711        47.6312       0.242068         4.9565         2.4868         1.2159         1.2134         1.2141
    2627.07120        12.1743       0.002261      -999.2500       222.7204       102.6559        47.6235       0.246421         5.1803         2.4572         1.1634         1.1616         1.1658
    2627.22360        12.1823       0.009026      -999.2500       223.3187       103.0764        46.6929       0.269139         5.2059         2.4721         1.1462         1.1557         1.1552
    2627.37600        12.1823       0.016121      -999.2500       224.8283       102.9988        48.2149       0.262455         5.1499         2.4948         1.0701         1.1187         1.1132
    2627.52840        12.1823       0.005416      -999.2500       225.8033       101.9854        51.1559       0.257517         4.9021         2.4907         1.0583         1.1043         1.1067
    2627.68080        12.1884       0.009565      -999.2500       225.8413       101.5441        46.6786       0.244264         5.2169         2.4971         1.0526         1.1314         1.0838
    2627.83320        12.2392       0.036337      -999.2500       224.8269       100.9991        41.5284       0.249615         6.0937         2.5346         1.0477         1.1157         1.0683
    2627.98560        12.2472       0.030399      -999.2500       224.1906       100.8407        46.3598       0.242127         6.1313         2.5207         1.0476         1.1132         1.0670
    2628.13800        12.2128       0.035557      -999.2500       223.5030       100.8386        47.4325       0.241915         6.0065         2.5172         1.0669         1.1305         1.0917
    2628.29040        12.1935       0.030602      -999.2500       226.2339       101.6112        44.7321       0.235827         5.8468         2.5096         1.0762         1.1341         1.0922
    2628.44280        12.2334       0.022926      -999.2500       226.6947       102.2324        45.6061       0.229187         5.6910         2.4922         1.0421         1.1148         1.0464
    2628.59520        12.2472       0.014388      -999.2500       227.0161       103.1858        48.1786       0.243425         5.7244         2.4865         1.0163         1.0759         1.0237
    2628.74760        12.2472       0.013051      -999.2500       226.8838       103.6254        36.2346       0.257663         5.7385         2.4925         1.0384         1.0856         1.0325
    2628.90000        12.2472       0.041079      -999.2500       226.2772       102.7719        46.9612       0.251930         6.0033         2.5239         0.9291         1.0212         0.9489
    2629.05240        12.2472       0.020253      -999.2500       226.4434       102.9359        42.9479       0.251972         5.9538         2.4807         0.9291         1.0212         0.9489
    2629.20480        12.2309       0.018120      -999.2500       226.6380       103.0741        40.5249       0.253528         6.0053         2.4844         0.9494         1.0133         1.0021
    2629.35720        12.1858       0.012237      -999.2500       226.5054       102.6329        43.5529       0.251777         5.6997         2.4818         1.0245         1.0432         1.0690
    2629.50960        12.2080       0.012381      -999.2500       226.3685       103.1241        56.3978       0.262943         5.8406         2.4817         1.0810         1.1332         1.0796
    2629.66200        12.2373       0.020319      -999.2500       226.4962       103.9119        58.2583       0.256262         6.0993         2.4880         0.9748         1.0831         0.9730
    2629.81440        12.2472       0.040337      -999.2500       226.9533       104.2271        48.4075       0.249916         6.2593         2.5076         0.9477         1.0218         0.9588
    2629.96680        12.1992       0.016972      -999.2500       228.6111       104.8837        39.6787       0.249873         5.7172         2.4912         0.9757         1.0026         0.9859
    2630.11920        12.1823       0.006052      -999.2500       226.1645       105.2650        46.6753       0.252085         5.5401         2.4830         0.9686         1.0116         0.9734
    2630.27160        12.2473       0.030806      -999.2500       222.8932       105.5590        47.4357       0.259831         6.2231         2.4982         0.9440         1.0099         0.9745
    2630.42400        12.2473       0.023055      -999.2500       222.1492       105.5325        42.2757       0.264078         5.7762         2.4943         0.9536         1.0138         0.9888
    2630.57640        12.2472       0.022579      -999.2500       221.6921       105.2655        50.4652       0.260633         6.4542         2.4796         0.9875         1.0444         1.0171
    2630.72880        12.2472       0.022579      -999.2500       222.8050       105.4783        51.7289       0.263310         6.4542         2.4796         1.0099         1.0727         1.0178
    2630.88120        12.2430       0.040036      -999.2500       223.0099       105.1475        52.5274       0.267305         6.3766         2.5111         1.0128         1.0771         1.0274
    2631.03360        12.3175       0.063981      -999.2500       222.2850       104.3088        52.4363       0.251485         7.0511         2.5387         1.0487         1.0973         1.0676
    2631.18600        12.2472       0.031934      -999.2500       220.8004       102.7200        44.9185       0.252044         6.5777         2.5243         1.0976         1.1456         1.1090
