~Version Information Block
VERS .                  2.0:  CWLS LOG ASCII STANDARD - VERSION 2.0
WRAP .                   NO:  One line per depth step
~Well Information Block
#MNEM.UNIT        Data Type   Information
#---------- ----------------  -----------
STRT .M          3064.61160:  START DEPTH
STOP .M          3593.28720:  STOP DEPTH
STEP .M             0.15240:  STEP
NULL .              -999.25:  NULL VALUE
COMP .                     :  COMPANY
WELL .          NO_31/1-3_S:  WELL
FLD  .                     :  FIELD
LOC  .                     :  LOCATION
CTRY .                     :  COUNTRY
STAT .                     :  STATE
CNTY .                     :  COUNTY
SRVC .                     :  SERVICE COMPANY
DATE .                     :  DATE
API  .                     :  API NUMBER
UWI  .                     :  UNIQUE WELL ID
~Curve Information Block
#MNEM.UNIT         API CODE   Curve Description
#---------- ----------------  -----------------
DEPTH.M                    :  Loaded from /private/inp/roever_soer_wells.unl.
LFP_K.%                    :  Potassium
LFP_TH.PPM                  :  Thorium
LFP_U.PPM                  :  Uranium
~Parameter Information Block
#MNEM.UNIT            Value   Description
#---------- ----------------  -----------
PROJECT.     LFP@st-vlinapp01:  
SET  .                  LFP:  
~Other Information Block
# 
~A       DEPTH          LFP_K         LFP_TH          LFP_U 
# ...
    3432.20040         1.5614         4.3225         1.7708
    3432.35280         1.5840         4.2313         1.7634
    3432.50520         1.6157         4.1641         1.7921
    3432.65760         1.6368         4.2062         1.7974
    3432.81000         1.6788         4.2690         1.6952
    3432.96240         1.7168         4.2926         1.5701
    3433.11480         1.7226         4.1528         1.6244
    3433.26720         1.7053         3.9225         1.7941
    3433.41960         1.6644         3.7867         2.0405
    3433.57200         1.6492         3.8770         2.1517
    3433.72440         1.6700         4.1529         2.0523
    3433.87680         1.6908         4.4464         1.8824
    3434.02920         1.7252         4.8289         1.6290
    3434.18160         1.7428         5.1803         1.4356
    3434.33400         1.7384         5.3405         1.3733
    3434.48640         1.7547         5.4763         1.2522
    3434.63880         1.7587         5.4105         1.2166
    3434.79120         1.7759         5.1989         1.1567
    3434.94360         1.7684         5.0263         1.1514
    3435.09600         1.7442         4.8521         1.2015
    3435.24840         1.7457         4.9273         1.1263
    3435.40080         1.7494         5.2819         0.9725
    3435.55320         1.7742         5.6599         0.7340
    3435.70560         1.7867         5.8968         0.5620
    3435.85800         1.7585         5.7964         0.6677
    3436.01040         1.7416         5.6056         0.8502
    3436.16280         1.7304         5.4164         1.1298
    3436.31520         1.7467         5.4995         1.3380
    3436.46760         1.8168         5.7610         1.3675
    3436.62000         1.8728         5.9496         1.4002
    3436.77240         1.9149         6.0055         1.4165
    3436.92480         1.9574         5.9536         1.3954
    3437.07720         1.9676         5.8904         1.3825
    3437.22960         1.9683         5.8817         1.3106
    3437.38200         1.9657         5.7421         1.2705
    3437.53440         1.9534         5.5058         1.3591
    3437.68680         1.9796         5.3928         1.4781
    3437.83920         2.0068         5.6651         1.6294
    3437.99160         2.0723         6.3589         1.7028
    3438.14400         2.1534         7.2094         1.7024
    3438.29640         2.2034         7.6899         1.7609
    3438.44880         2.2341         7.5425         1.8451
    3438.60120         2.2671         7.1360         1.7632
    3438.75360         2.2662         6.4761         1.7042
    3438.90600         2.2690         6.2040         1.5214
    3439.05840         2.2325         6.1088         1.4831
    3439.21080         2.1790         6.2262         1.4611
    3439.36320         2.1183         6.3051         1.4665
    3439.51560         2.0348         6.1428         1.5130
    3439.66800         1.9406         5.8864         1.4961
    3439.82040         1.8816         5.6602         1.3710
    3439.97280         1.8408         5.3507         1.2757
    3440.12520         1.7969         5.2832         1.1477
    3440.27760         1.7383         5.0360         1.1539
    3440.43000         1.6579         4.7185         1.2326
    3440.58240         1.6078         4.4993         1.3377
    3440.73480         1.6322         4.4188         1.4458
    3440.88720         1.7484         4.5425         1.5354
    3441.03960         1.9191         4.8866         1.6374
    3441.19200         2.0889         5.2996         1.7277
    3441.34440         2.1966         5.5701         1.8245
    3441.49680         2.2234         5.7738         1.8116
    3441.64920         2.1438         5.8094         1.7350
    3441.80160         2.0006         5.7916         1.5885
    3441.95400         1.8641         5.8666         1.3999
    3442.10640         1.7779         5.8318         1.3543
    3442.25880         1.8060         6.0038         1.4273
    3442.41120         1.9302         6.3040         1.6456
    3442.56360         2.0854         6.6214         1.9125
    3442.71600         2.2252         7.0842         2.0042
    3442.86840         2.2943         7.3115         2.0431
    3443.02080         2.3018         7.5653         1.9934
    3443.17320         2.2447         7.7606         2.1361
    3443.32560         2.1412         7.7956         2.6105
    3443.47800         2.0667         8.0054         3.0665
    3443.63040         2.0318         7.9871         3.4787
    3443.78280         2.0675         7.7839         3.5942
    3443.93520         2.1606         7.5992         3.3404
    3444.08760         2.2391         7.3562         3.0894
    3444.24000         2.2784         7.3828         2.8505
    3444.39240         2.2844         7.6453         2.7421
    3444.54480         2.2869         7.8515         2.7695
    3444.69720         2.2989         8.1850         2.7557
    3444.84960         2.3508         8.4351         2.7011
    3445.00200         2.4117         8.5298         2.6271
    3445.15440         2.4636         8.5136         2.5264
    3445.30680         2.5146         8.4890         2.3947
    3445.45920         2.5588         8.4991         2.2212
    3445.61160         2.6022         8.5279         2.0446
    3445.76400         2.6350         8.3195         1.9987
    3445.91640         2.6195         8.2663         2.0012
    3446.06880         2.5693         8.2864         2.1010
    3446.22120         2.4852         8.4169         2.2673
    3446.37360         2.3786         8.8218         2.3919
    3446.52600         2.3206         9.0684         2.5340
    3446.67840         2.3258         9.3314         2.5231
    3446.83080         2.4032         9.6035         2.3294
    3446.98320         2.5170         9.6396         2.1776
    3447.13560         2.6107        10.0265         1.8789
    3447.28800         2.6169        10.6253         1.7143
    3447.44040         2.5406        10.9291         1.8151
    3447.59280         2.3840        11.0241         2.0964
    3447.74520         2.2450        10.6560         2.5534
    3447.89760         2.1604        10.0118         2.9571
    3448.05000         2.1704         9.6347         2.9986
    3448.20240         2.2329         9.3174         2.9056
    3448.35480         2.3329         9.1457         2.6284
    3448.50720         2.4588         9.1154         2.2966
    3448.65960         2.5426         9.0804         2.1113
    3448.81200         2.5911         8.9986         2.0523
    3448.96440         2.5779         9.1651         2.0945
    3449.11680         2.4981         9.4426         2.2988
    3449.26920         2.4144         9.7719         2.5393
    3449.42160         2.3858        10.1590         2.6733
    3449.57400         2.4094        10.7164         2.6348
    3449.72640         2.4820        11.1062         2.5666
    3449.87880         2.5777        11.6162         2.3442
    3450.03120         2.6263        11.8552         2.3038
    3450.18360         2.5950        11.5885         2.5357
    3450.33600         2.5335        10.9662         2.7892
    3450.48840         2.4327         9.9713         3.1419
    3450.64080         2.3272         9.1231         3.3378
    3450.79320         2.2607         8.7711         3.2679
    3450.94560         2.2320         8.9188         3.1182
    3451.09800         2.2447         9.5738         2.8054
    3451.25040         2.2787        10.0828         2.6176
    3451.40280         2.3043        10.3245         2.5575
    3451.55520         2.2983        10.1567         2.6488
    3451.70760         2.2914         9.6515         2.8475
    3451.86000         2.2969         9.3673         2.8845
    3452.01240         2.3373         9.2443         2.8335
    3452.16480         2.3988         9.3872         2.6825
    3452.31720         2.4939         9.4930         2.4670
    3452.46960         2.6100         9.5248         2.2704
