~Version Information Block
VERS .                  2.0:  CWLS LOG ASCII STANDARD - VERSION 2.0
WRAP .                   NO:  One line per depth step
~Well Information Block
#MNEM.UNIT        Data Type   Information
#---------- ----------------  -----------
STRT .M          3064.61160:  START DEPTH
STOP .M          3593.28720:  STOP DEPTH
STEP .M             0.15240:  STEP
NULL .              -999.25:  NULL VALUE
COMP .                     :  COMPANY
WELL .          NO_31/1-3_S:  WELL
FLD  .                     :  FIELD
LOC  .                     :  LOCATION
CTRY .                     :  COUNTRY
STAT .                     :  STATE
CNTY .                     :  COUNTY
SRVC .                     :  SERVICE COMPANY
DATE .                     :  DATE
API  .                     :  API NUMBER
UWI  .                     :  UNIQUE WELL ID
~Curve Information Block
#MNEM.UNIT         API CODE   Curve Description
#---------- ----------------  -----------------
DEPTH.M                    :  Loaded from /private/inp/roever_soer_wells.unl.
LFP_K.%                    :  Potassium
LFP_TH.PPM                  :  Thorium
LFP_U.PPM                  :  Uranium
~Parameter Information Block
#MNEM.UNIT            Value   Description
#---------- ----------------  -----------
PROJECT.     LFP@st-vlinapp01:  
SET  .                  LFP:  
~Other Information Block
# 
~A       DEPTH          LFP_K         LFP_TH          LFP_U 
# ...
    3575.15160         1.4404         2.8504         2.3198
    3575.30400         1.4584         2.8872         2.3281
    3575.45640         1.5265         3.0123         2.1983
    3575.60880         1.5793         3.3324         1.9624
    3575.76120         1.5985         3.6444         1.7519
    3575.91360         1.5689         3.8014         1.6297
    3576.06600         1.4913         3.7545         1.6815
    3576.21840         1.4042         3.4450         1.8782
    3576.37080         1.3293         2.9267         2.2334
    3576.52320         1.2883         2.3850         2.5577
    3576.67560         1.2937         1.9118         2.7308
    3576.82800         1.3119         1.6386         2.7080
    3576.98040         1.3640         1.6447         2.4445
    3577.13280         1.4171         1.8956         2.0804
    3577.28520         1.4430         2.2984         1.8349
    3577.43760         1.4542         2.6859         1.7453
    3577.59000         1.4443         2.9668         1.8423
    3577.74240         1.4423         3.0252         1.9775
    3577.89480         1.4555         2.8351         2.0654
    3578.04720         1.4420         2.4000         2.2406
    3578.19960         1.3942         1.9591         2.5028
    3578.35200         1.3141         1.5744         2.8808
    3578.50440         1.2094         1.4145         3.3072
    3578.65680         1.1503         1.4976         3.5462
    3578.80920         1.1459         1.7774         3.5024
    3578.96160         1.1831         2.0838         3.2792
    3579.11400         1.2668         2.4218         2.8624
    3579.26640         1.3264         2.4760         2.6235
    3579.41880         1.3658         2.3598         2.5216
    3579.57120         1.3849         2.1064         2.5777
    3579.72360         1.3721         1.8319         2.7405
    3579.87600         1.3463         1.6119         2.9316
    3580.02840         1.3197         1.4814         3.1090
    3580.18080         1.2722         1.4016         3.3209
    3580.33320         1.2677         1.3677         3.4368
    3580.48560         1.2892         1.3960         3.4776
    3580.63800         1.3189         1.5092         3.4259
    3580.79040         1.3367         1.5657         3.3584
    3580.94280         1.3643         1.6325         3.2372
    3581.09520         1.3418         1.4814         3.3000
    3581.24760         1.4173         1.2954         3.1911
    3581.40000         1.5548         1.1625         2.9734
    3581.55240         1.6611         1.0364         2.8133
    3581.70480         1.7205         1.0368         2.6955
    3581.85720         1.6497         1.0285         2.7587
    3582.00960         1.4305         0.8786         3.1117
    3582.16200         1.2784         0.8427         3.2544
    3582.31440         1.1316         0.7139         3.4618
    3582.46680         1.0529         0.6358         3.6203
    3582.61920         1.1309         0.8444         3.4663
    3582.77160         1.1919         1.0050         3.3891
    3582.92400         1.2904         1.2894         3.1978
    3583.07640         1.4042         1.7272         2.9662
    3583.22880         1.4025         1.8639         3.1545
    3583.38120         1.3485         1.6901         3.6506
    3583.53360         1.2158         1.2999         4.4201
    3583.68600         1.0233         0.7421         5.2053
    3583.83840         0.9999         0.2943         5.3829
    3583.99080         1.0656         0.2269         5.1290
    3584.14320         1.2177         0.2614         4.7099
    3584.29560         1.4037         0.5736         4.2656
    3584.44800         1.4779         0.9582         4.0265
    3584.60040         1.4318         1.3466         4.0422
    3584.75280         1.3412         1.7681         4.0826
    3584.90520         1.2262         1.8841         4.2482
    3585.05760         1.2021         1.8197         4.3404
    3585.21000         1.2590         2.0104         4.1830
    3585.36240         1.3198         1.9514         4.1597
    3585.51480         1.4031         1.9516         4.0775
    3585.66720         1.4198         1.7793         4.1199
    3585.81960         1.4116         1.3622         4.2742
    3585.97200         1.3373         1.0157         4.5132
    3586.12440         1.2248         0.7912         4.8387
    3586.27680         1.1323         0.6768         5.1246
    3586.42920         1.1089         0.8964         5.2155
    3586.58160         1.1316         1.1076         5.2527
    3586.73400         1.2113         1.2931         5.1485
    3586.88640         1.2796         1.6876         4.9572
    3587.03880         1.3556         2.2539         4.4846
    3587.19120         1.4082         2.7905         4.0079
    3587.34360         1.4589         3.5080         3.4005
    3587.49600         1.5340         3.5033         2.9830
    3587.64840         1.5757         3.1007         3.0007
    3587.80080         1.5933         2.5699         3.2502
    3587.95320         1.5726         1.6267         3.8346
    3588.10560         1.5344         1.0455         4.4116
    3588.25800         1.6128         0.7121         4.5846
    3588.41040         1.7631         0.3611         4.6238
    3588.56280         1.9253         0.2990         4.5668
    3588.71520         1.9521         0.2345         4.9833
    3588.86760         1.9019         0.1131         5.6617
    3589.02000         1.7074         0.1282         6.6538
    3589.17240         1.5490         0.0875         7.4929
    3589.32480         1.4674         0.4800         7.7968
    3589.47720         1.4693         0.8236         7.7481
    3589.62960         1.5889         1.1233         7.2865
    3589.78200         1.8069         1.6303         6.4768
    3589.93440         1.9626         1.7483         6.0519
    3590.08680         2.1310         1.9636         5.6694
    3590.23920         2.1417         1.8915         5.8150
    3590.39160         2.0731         1.4210         6.1557
    3590.54400         1.9186         1.2365         6.5010
    3590.69640         1.7775         1.0250         6.9211
    3590.84880         1.6534         1.2178         7.1582
    3591.00120         1.5988         2.0736         7.0617
    3591.15360         1.5903         2.6750         7.0895
    3591.30600         1.6567         3.5125         6.8519
    3591.45840         1.7580         3.6988         6.6523
    3591.61080         1.8909         3.4857         6.5262
    3591.76320         1.9392         3.1042         6.4490
    3591.91560         1.9408         2.4960         6.4568
    3592.06800         1.8612         2.1252         6.5795
    3592.22040         1.8381         1.9300         6.5739
    3592.37280         1.7839         1.6160         6.8203
    3592.52520         1.8361         1.6751         6.8200
    3592.67760         1.9209         1.7551         6.6980
    3592.83000         1.9997         1.7269         6.5882
    3592.98240         2.0946         1.6416         6.4358
    3593.13480         2.1445         1.4485         6.4296
    3593.28720         2.1207         1.2148         6.6651
