~Version Information Block
VERS .                  2.0:  CWLS LOG ASCII STANDARD - VERSION 2.0
WRAP .                   NO:  One line per depth step
~Well Information Block
#MNEM.UNIT        Data Type   Information
#---------- ----------------  -----------
STRT .M          3064.61160:  START DEPTH
STOP .M          3593.28720:  STOP DEPTH
STEP .M             0.15240:  STEP
NULL .              -999.25:  NULL VALUE
COMP .                     :  COMPANY
WELL .          NO_31/1-3_S:  WELL
FLD  .                     :  FIELD
LOC  .                     :  LOCATION
CTRY .                     :  COUNTRY
STAT .                     :  STATE
CNTY .                     :  COUNTY
SRVC .                     :  SERVICE COMPANY
DATE .                     :  DATE
API  .                     :  API NUMBER
UWI  .                     :  UNIQUE WELL ID
~Curve Information Block
#MNEM.UNIT         API CODE   Curve Description
#---------- ----------------  -----------------
DEPTH.M                    :  Loaded from /private/inp/roever_soer_wells.unl.
LFP_K.%                    :  Potassium
LFP_TH.PPM                  :  Thorium
LFP_U.PPM                  :  Uranium
~Parameter Information Block
#MNEM.UNIT            Value   Description
#---------- ----------------  -----------
PROJECT.     LFP@st-vlinapp01:  
SET  .                  LFP:  
~Other Information Block
# 
~A       DEPTH          LFP_K         LFP_TH          LFP_U 
# ...
    3534.30840         2.8679         8.7755         2.3888
    3534.46080         2.7589         8.6140         2.4316
    3534.61320         2.6080         8.5266         2.4182
    3534.76560         2.4101         8.4857         2.4603
    3534.91800         2.2605         8.4000         2.4187
    3535.07040         2.1598         8.5283         2.2635
    3535.22280         2.0922         8.7108         2.1140
    3535.37520         2.0976         8.9731         1.8589
    3535.52760         2.0869         9.2499         1.7852
    3535.68000         2.0941         9.3309         1.8047
    3535.83240         2.1267         9.0350         2.0095
    3535.98480         2.1552         8.6577         2.2769
    3536.13720         2.2503         8.1675         2.4285
    3536.28960         2.3718         7.7411         2.5515
    3536.44200         2.5430         7.7169         2.5154
    3536.59440         2.7641         8.1184         2.2939
    3536.74680         2.9499         8.7507         2.1428
    3536.89920         3.0892         9.4127         1.9982
    3537.05160         3.1329         9.7817         2.0467
    3537.20400         3.0608         9.5857         2.4366
    3537.35640         3.0021         9.2525         2.7420
    3537.50880         2.9780         8.9045         2.8315
    3537.66120         2.9686         8.5965         2.7293
    3537.81360         2.9548         8.5021         2.4321
    3537.96600         2.8552         8.4437         2.1527
    3538.11840         2.6711         8.4437         2.0334
    3538.27080         2.4970         8.8825         1.9030
    3538.42320         2.3625         9.7082         1.7505
    3538.57560         2.2714        10.7825         1.6873
    3538.72800         2.2503        11.6883         1.6270
    3538.88040         2.1942        11.9569         1.7622
    3539.03280         2.1279        11.4304         2.0439
    3539.18520         2.0915        10.2289         2.3322
    3539.33760         2.1234         8.9281         2.5620
    3539.49000         2.2309         7.8652         2.7074
    3539.64240         2.3948         7.2395         2.8022
    3539.79480         2.5669         7.0278         2.9122
    3539.94720         2.7219         7.0456         2.9145
    3540.09960         2.7929         7.0754         2.8902
    3540.25200         2.7798         7.0199         2.8145
    3540.40440         2.7285         6.9488         2.7065
    3540.55680         2.6656         6.7962         2.7386
    3540.70920         2.6491         6.8613         2.7413
    3540.86160         2.6917         7.2347         2.6129
    3541.01400         2.7817         7.5230         2.4875
    3541.16640         2.8742         7.7545         2.3341
    3541.31880         2.9513         7.6505         2.3268
    3541.47120         3.0004         7.1119         2.5002
    3541.62360         3.0304         6.6854         2.7019
    3541.77600         2.9953         6.4981         2.9586
    3541.92840         2.9281         6.5434         3.0857
    3542.08080         2.7955         6.9626         3.1295
    3542.23320         2.6167         7.5449         3.1963
    3542.38560         2.4480         8.2832         3.1518
    3542.53800         2.3071         9.0804         3.0859
    3542.69040         2.2089         9.8828         2.9048
    3542.84280         2.1877        10.3440         2.6230
    3542.99520         2.1647        10.2236         2.6423
    3543.14760         2.1544         9.6956         2.7574
    3543.30000         2.1858         9.0697         2.9311
    3543.45240         2.2817         8.6240         2.9744
    3543.60480         2.4128         8.5485         2.8641
    3543.75720         2.6206         8.6378         2.5983
    3543.90960         2.7865         9.1145         2.2858
    3544.06200         2.8711         9.5056         2.0752
    3544.21440         2.8404         9.9610         2.0316
    3544.36680         2.7207        10.3841         2.0807
    3544.51920         2.5592        10.5830         2.2414
    3544.67160         2.4309        10.5987         2.3676
    3544.82400         2.3268        10.5174         2.5078
    3544.97640         2.2110        10.3607         2.7214
    3545.12880         2.0789        10.3826         2.9657
    3545.28120         1.9534        10.6655         3.1031
    3545.43360         1.8224        11.0092         3.2732
    3545.58600         1.7988        11.4768         3.2362
    3545.73840         1.8365        12.2040         2.9709
    3545.89080         1.8898        12.9930         2.6371
    3546.04320         1.9645        13.4836         2.2822
    3546.19560         1.9463        13.7567         2.0263
    3546.34800         1.8847        13.6874         1.8216
    3546.50040         1.8071        13.0744         1.5615
    3546.65280         1.6556        12.1052         1.4027
    3546.80520         1.5169        10.9335         1.2290
    3546.95760         1.3994         9.3104         1.1846
    3547.11000         1.2935         8.0785         1.1719
    3547.26240         1.2579         7.2055         1.0994
    3547.41480         1.2598         6.5065         1.0319
    3547.56720         1.2685         6.4089         0.9020
    3547.71960         1.2528         6.2741         0.8752
    3547.87200         1.2088         6.1573         0.9154
    3548.02440         1.1494         6.3810         0.8968
    3548.17680         1.0792         6.6237         0.9472
    3548.32920         1.0282         6.9851         0.9877
    3548.48160         0.9976         7.0217         1.1574
    3548.63400         0.9792         6.7470         1.4551
    3548.78640         0.9999         6.3641         1.6821
    3548.93880         1.0367         6.1071         1.8050
    3549.09120         1.0808         6.1924         1.7266
    3549.24360         1.1300         6.5341         1.5542
    3549.39600         1.1328         6.7494         1.5232
    3549.54840         1.1179         6.8847         1.5655
    3549.70080         1.1301         6.7352         1.6501
    3549.85320         1.1487         6.3620         1.7622
    3550.00560         1.2102         6.1393         1.6632
    3550.15800         1.2705         5.9706         1.4787
    3550.31040         1.3030         5.8382         1.2795
    3550.46280         1.3098         5.7706         1.0755
    3550.61520         1.2601         5.4545         1.0906
    3550.76760         1.2111         5.1279         1.1603
    3550.92000         1.1724         5.1360         1.1909
    3551.07240         1.1124         5.3803         1.2519
    3551.22480         1.1161         5.8658         1.1462
    3551.37720         1.1165         6.3931         1.0306
    3551.52960         1.1051         6.5583         1.0277
    3551.68200         1.1069         6.2278         1.1068
    3551.83440         1.0817         5.8075         1.2313
    3551.98680         1.0734         5.4842         1.2423
    3552.13920         1.0977         5.1894         1.1586
    3552.29160         1.1384         5.0562         0.9795
    3552.44400         1.1725         5.0352         0.7834
    3552.59640         1.1887         4.9281         0.7049
    3552.74880         1.1953         4.9897         0.7332
    3552.90120         1.1705         5.0601         0.9629
    3553.05360         1.1655         5.0273         1.2613
    3553.20600         1.1848         5.1165         1.4934
    3553.35840         1.1707         5.1112         1.7399
    3553.51080         1.1539         5.3024         1.8693
    3553.66320         1.1316         5.6939         1.8554
    3553.81560         1.0977         6.1813         1.7886
    3553.96800         1.0991         6.7128         1.6007
    3554.12040         1.0923         6.9378         1.4711
    3554.27280         1.0631         6.8162         1.4719
    3554.42520         1.0489         6.6785         1.5869
    3554.57760         1.0529         6.6112         1.7250
