~Version Information Block
VERS .                  2.0:  CWLS LOG ASCII STANDARD - VERSION 2.0
WRAP .                   NO:  One line per depth step
~Well Information Block
#MNEM.UNIT        Data Type   Information
#---------- ----------------  -----------
STRT .M          3064.61160:  START DEPTH
STOP .M          3593.28720:  STOP DEPTH
STEP .M             0.15240:  STEP
NULL .              -999.25:  NULL VALUE
COMP .                     :  COMPANY
WELL .          NO_31/1-3_S:  WELL
FLD  .                     :  FIELD
LOC  .                     :  LOCATION
CTRY .                     :  COUNTRY
STAT .                     :  STATE
CNTY .                     :  COUNTY
SRVC .                     :  SERVICE COMPANY
DATE .                     :  DATE
API  .                     :  API NUMBER
UWI  .                     :  UNIQUE WELL ID
~Curve Information Block
#MNEM.UNIT         API CODE   Curve Description
#---------- ----------------  -----------------
DEPTH.M                    :  Loaded from /private/inp/roever_soer_wells.unl.
LFP_K.%                    :  Potassium
LFP_TH.PPM                  :  Thorium
LFP_U.PPM                  :  Uranium
~Parameter Information Block
#MNEM.UNIT            Value   Description
#---------- ----------------  -----------
PROJECT.     LFP@st-vlinapp01:  
SET  .                  LFP:  
~Other Information Block
# 
~A       DEPTH          LFP_K         LFP_TH          LFP_U 
# ...
    3268.82760         1.7765         2.6732         1.5441
    3268.98000         1.9204         2.7501         1.4811
    3269.13240         2.0364         3.1474         1.3204
    3269.28480         2.1057         3.7998         1.1310
    3269.43720         2.1207         4.3898         0.9586
    3269.58960         2.0917         4.6964         0.7816
    3269.74200         1.9930         4.4524         0.6849
    3269.89440         1.8450         3.8733         0.6225
    3270.04680         1.6668         3.1420         0.6223
    3270.19920         1.4934         2.6057         0.6623
    3270.35160         1.3806         2.2877         0.6843
    3270.50400         1.3090         2.0749         0.7544
    3270.65640         1.3029         1.9916         0.7614
    3270.80880         1.3221         1.8666         0.7593
    3270.96120         1.3209         1.8011         0.7591
    3271.11360         1.3136         1.8986         0.7373
    3271.26600         1.3084         1.9637         0.7424
    3271.41840         1.3149         2.0970         0.7620
    3271.57080         1.3582         2.1860         0.7316
    3271.72320         1.4016         2.2277         0.7036
    3271.87560         1.4295         2.3036         0.6783
    3272.02800         1.4324         2.3209         0.6763
    3272.18040         1.4147         2.3430         0.7048
    3272.33280         1.4011         2.5003         0.6871
    3272.48520         1.4036         2.5637         0.6851
    3272.63760         1.4049         2.5822         0.7112
    3272.79000         1.4128         2.4964         0.7262
    3272.94240         1.3789         2.3383         0.8474
    3273.09480         1.3375         2.2318         0.9397
    3273.24720         1.3094         2.2017         0.9705
    3273.39960         1.3093         2.3143         0.9394
    3273.55200         1.3692         2.4655         0.7401
    3273.70440         1.4513         2.4864         0.5449
    3273.85680         1.4972         2.4456         0.4492
    3274.00920         1.5403         2.2229         0.4201
    3274.16160         1.5417         2.0616         0.5031
    3274.31400         1.5414         1.9511         0.5907
    3274.46640         1.5482         1.9568         0.6505
    3274.61880         1.5371         2.2029         0.6690
    3274.77120         1.5087         2.4544         0.6336
    3274.92360         1.4786         2.6818         0.5970
    3275.07600         1.4384         2.7631         0.5890
    3275.22840         1.4280         2.6086         0.6139
    3275.38080         1.4306         2.4433         0.6971
    3275.53320         1.4330         2.2379         0.8416
    3275.68560         1.4329         2.0483         1.0320
    3275.83800         1.4288         1.9383         1.2109
    3275.99040         1.4115         1.8020         1.3706
    3276.14280         1.3975         1.8934         1.3566
    3276.29520         1.4125         1.9857         1.2392
    3276.44760         1.4237         2.2281         1.0478
    3276.60000         1.4321         2.4730         0.8810
    3276.75240         1.4210         2.6051         0.8655
    3276.90480         1.4103         2.7490         0.8626
    3277.05720         1.4083         2.8062         0.8516
    3277.20960         1.4348         2.7242         0.8909
    3277.36200         1.4753         2.7049         0.8683
    3277.51440         1.5432         2.6049         0.8784
    3277.66680         1.5828         2.5391         1.0170
    3277.81920         1.5884         2.5540         1.2106
    3277.97160         1.6085         2.6586         1.4016
    3278.12400         1.6694         2.7599         1.5795
    3278.27640         1.7696         2.9690         1.7308
    3278.42880         1.9491         3.3978         1.8083
    3278.58120         2.1288         3.7148         1.9053
    3278.73360         2.2611         4.0374         1.8482
    3278.88600         2.3033         3.9800         1.7330
    3279.03840         2.2249         3.7202         1.4573
    3279.19080         2.0401         3.4006         1.1403
    3279.34320         1.8424         3.0573         0.8437
    3279.49560         1.6466         2.8361         0.6081
    3279.64800         1.5027         2.7683         0.4738
    3279.80040         1.4527         2.5529         0.4744
    3279.95280         1.4480         2.4273         0.4595
    3280.10520         1.4755         2.4002         0.5466
    3280.25760         1.5208         2.6308         0.6333
    3280.41000         1.5280         3.1724         0.7793
    3280.56240         1.5145         3.8797         1.0118
    3280.71480         1.4892         4.5245         1.2917
    3280.86720         1.4401         5.0135         1.5986
    3281.01960         1.4260         5.1754         1.8010
    3281.17200         1.4271         5.0401         1.8543
    3281.32440         1.4803         4.8581         1.7499
    3281.47680         1.5837         4.5257         1.5505
    3281.62920         1.6815         4.1761         1.3795
    3281.78160         1.7191         3.8053         1.3407
    3281.93400         1.7200         3.4738         1.3039
    3282.08640         1.6441         3.2259         1.3219
    3282.23880         1.5823         3.1295         1.2123
    3282.39120         1.5587         3.1254         0.9965
    3282.54360         1.5632         3.1395         0.8339
    3282.69600         1.5756         3.1061         0.7398
    3282.84840         1.5966         3.1365         0.6768
    3283.00080         1.5947         3.2091         0.6951
    3283.15320         1.5888         3.4963         0.6555
    3283.30560         1.5909         3.8064         0.6049
    3283.45800         1.5748         3.9653         0.5534
    3283.61040         1.5589         3.8350         0.5464
    3283.76280         1.5676         3.5245         0.5685
    3283.91520         1.5841         3.1206         0.6635
    3284.06760         1.6502         2.8781         0.8060
    3284.22000         1.7265         2.8703         1.0048
    3284.37240         1.7785         3.0447         1.1708
    3284.52480         1.7873         3.2973         1.3082
    3284.67720         1.7381         3.5000         1.3800
    3284.82960         1.6673         3.5202         1.3792
    3284.98200         1.6309         3.6019         1.2472
    3285.13440         1.6549         3.5804         1.0761
    3285.28680         1.6847         3.6585         0.8864
    3285.43920         1.7074         3.8266         0.6982
    3285.59160         1.6862         3.8093         0.6235
    3285.74400         1.6676         3.7235         0.5809
    3285.89640         1.6925         3.5400         0.6210
    3286.04880         1.8029         3.4202         0.7697
    3286.20120         2.0030         3.6975         0.8438
    3286.35360         2.1972         4.1212         0.9447
    3286.50600         2.2885         4.5152         0.9499
    3286.65840         2.2445         4.5017         0.9136
    3286.81080         2.0694         3.9616         0.8607
    3286.96320         1.8665         3.3058         0.7268
    3287.11560         1.6777         2.7145         0.6518
    3287.26800         1.5427         2.3841         0.6426
    3287.42040         1.4439         2.3729         0.7009
    3287.57280         1.3640         2.5149         0.8161
    3287.72520         1.3056         2.6633         0.8631
    3287.87760         1.2651         2.8032         0.8749
    3288.03000         1.2850         2.8758         0.7749
    3288.18240         1.3393         2.9145         0.6501
    3288.33480         1.4012         2.7803         0.6188
    3288.48720         1.4800         2.6140         0.5862
    3288.63960         1.5278         2.2885         0.6480
    3288.79200         1.5507         1.9350         0.7024
    3288.94440         1.5543         1.6622         0.7527
    3289.09680         1.5344         1.3955         0.8620
