~Version Information Block
VERS .                  2.0:  CWLS LOG ASCII STANDARD - VERSION 2.0
WRAP .                   NO:  One line per depth step
~Well Information Block
#MNEM.UNIT        Data Type   Information
#---------- ----------------  -----------
STRT .M           455.06640:  START DEPTH
STOP .M          3604.71720:  STOP DEPTH
STEP .M             0.15240:  STEP
NULL .              -999.25:  NULL VALUE
COMP .                     :  COMPANY
WELL .          NO_31/1-3_S:  WELL
FLD  .                     :  FIELD
LOC  .                     :  LOCATION
CTRY .                     :  COUNTRY
STAT .                     :  STATE
CNTY .                     :  COUNTY
SRVC .                     :  SERVICE COMPANY
DATE .                     :  DATE
API  .                     :  API NUMBER
UWI  .                     :  UNIQUE WELL ID
~Curve Information Block
#MNEM.UNIT         API CODE   Curve Description
#---------- ----------------  -----------------
DEPTH.M                    :  Loaded from /private/inp/roever_soer_wells.unl.
LFP_CALI.INCHES                 :  Caliper
LFP_DRHO.G/CM3                 :  Density Correction
LFP_DTST_LOG.US/FT                 :  DT Stonely
LFP_DTS_LOG.US/FT                 :  Shear slowness
LFP_DT_LOG.US/FT                 :  Compressional slowness
LFP_GR.API                  :  Gamma Ray (LFP_GR_1 Edited)
LFP_NPHI.V/V                  :  Neutron
LFP_PEF.B/E                  :  Photoelectric Factor
LFP_RHOB_LOG.G/CM3                 :  Density
LFP_RM.OHMM                 :  Medium Resistivity
LFP_RS.OHMM                 :  Shallow Resistivity
LFP_RT_LOG.OHMM                 :  Deep Resistivity
~Parameter Information Block
#MNEM.UNIT            Value   Description
#---------- ----------------  -----------
PROJECT.     LFP@st-vlinapp01:  
SET  .                  LFP:  
~Other Information Block
# 
~A       DEPTH       LFP_CALI       LFP_DRHO   LFP_DTST_LOG    LFP_DTS_LOG     LFP_DT_LOG         LFP_GR       LFP_NPHI        LFP_PEF   LFP_RHOB_LOG         LFP_RM         LFP_RS     LFP_RT_LOG 
# ...
    3476.24400         8.5245       0.010584       285.7545       128.5720        74.5000       113.8547       0.266596         3.9204         2.5857         7.7432         9.1836         7.8342
    3476.39640         8.5276       0.012250       283.6664       127.4309        74.2800       113.6973       0.267919         3.8486         2.5877         6.8832         8.8627         6.8781
    3476.54880         8.5481       0.018194       284.9205       126.3877        74.2300       112.9755       0.256166         3.8380         2.5891         6.1941         8.1795         6.1134
    3476.70120         8.5490       0.023808       286.0421       124.8905        74.3500       108.8182       0.227076         4.0322         2.5646         5.3317         6.7850         5.2096
    3476.85360         8.5374       0.023805       289.3724       123.0911        74.7900        93.1651       0.228750         4.3821         2.4935         4.4916         5.4920         4.3646
    3477.00600         8.5538       0.018200       289.6957       122.1722        75.1800        75.1482       0.233640         4.5498         2.4197         3.9898         4.8673         3.8645
    3477.15840         8.5537       0.017172       293.6224       122.6551        75.3900        68.8694       0.233377         4.3965         2.4065         3.6015         4.4260         3.4872
    3477.31080         8.5531       0.026212       291.0847       122.6259        75.8100        64.5454       0.233464         4.3753         2.4398         3.0079         3.6363         2.9264
    3477.46320         8.5260       0.032741       292.5614       122.9649        75.9000        57.5681       0.239003         4.6815         2.4442         2.5151         3.0054         2.4619
    3477.61560         8.4805       0.031368       291.8900       124.9391        76.8900        53.2256       0.242950         4.8088         2.3992         2.2720         2.7283         2.2351
    3477.76800         8.4412       0.028558       292.5788       126.1780        77.0200        52.2109       0.244367         4.5644         2.3583         2.1530         2.5979         2.1285
    3477.92040         8.4344       0.025465       291.2774       128.1788        77.5900        52.6272       0.243132         4.3570         2.3441         2.1511         2.5934         2.1369
    3478.07280         8.3871       0.021528       290.6298       129.0191        77.6500        53.6227       0.251127         4.3780         2.3369         2.2086         2.6289         2.2069
    3478.22520         8.3902       0.019503       291.7024       128.2491        77.7500        54.2994       0.257945         4.3985         2.3402         2.2920         2.5942         2.3036
    3478.37760         8.4417       0.019223       291.7024       128.2491        77.7500        53.9656       0.257760         4.3072         2.3549         2.3965         2.4175         2.4220
    3478.53000         8.4925       0.018984       290.8607       128.0057        77.0900        55.1000       0.251850         4.2441         2.3621         2.5010         2.5011         2.5402
    3478.68240         8.4827       0.019249       293.3381       127.2627        76.8800        56.3967       0.229705         4.3122         2.3569         2.6147         2.6116         2.6667
    3478.83480         8.3767       0.020410       293.3812       125.6611        76.4000        56.2944       0.230279         4.4288         2.3535         2.7702         2.7916         2.8353
    3478.98720         8.4105       0.021720       293.1269       123.9542        75.6800        56.1101       0.228412         4.4742         2.3609         2.8637         2.8960         2.9367
    3479.13960         8.4028       0.022311       290.6969       122.5073        75.3000        55.9733       0.231776         4.5335         2.3718         2.9116         2.9209         2.9868
    3479.29200         8.4326       0.024443       290.1767       121.3781        75.2900        56.0938       0.236838         4.6240         2.3974         2.9709         2.9683         3.0449
    3479.44440         8.4700       0.027246       290.1767       121.3781        75.2900        57.2423       0.235260         4.5906         2.4352         3.0638         3.0702         3.1336
    3479.59680         8.4745       0.023556       290.4855       121.6004        74.7700        57.6157       0.237543         4.4828         2.4507         3.2228         3.4013         3.2860
    3479.74920         8.4749       0.016412       288.8776       121.2703        74.6800        56.3411       0.230441         4.3623         2.4339         3.3361         3.9311         3.3852
    3479.90160         8.5148       0.015522       288.5050       121.0777        74.7300        54.4855       0.227262         4.1430         2.4075         3.2996         3.9928         3.3264
    3480.05400         8.5039       0.017800       287.7864       121.4792        74.6100        52.0117       0.239429         3.9589         2.3964         3.1970         3.8892         3.2006
    3480.20640         8.4673       0.018777       287.8679       121.4142        74.6600        50.8927       0.256173         4.0080         2.3953         3.1185         3.8113         3.1015
    3480.35880         8.5156       0.021335       288.5226       122.4297        74.4400        51.7352       0.258001         4.1347         2.3920         3.1238         3.8357         3.0894
    3480.51120         8.5203       0.023504       289.2124       122.7749        74.3200        53.3632       0.251716         4.1061         2.3940         3.2886         4.0508         3.2366
    3480.66360         8.5708       0.020923       291.0576       122.9926        74.1600        55.8563       0.256411         3.9725         2.4016         3.5947         4.3780         3.5249
    3480.81600         8.5706       0.015031       291.6286       123.9664        74.2100        57.8950       0.250105         3.8834         2.4022         3.8310         4.4894         3.7539
    3480.96840         8.5452       0.012111       291.6286       123.9664        74.2100        58.3414       0.254035         3.9004         2.4002         3.9736         4.4681         3.9038
    3481.12080         8.5029       0.015051       291.7317       124.1672        73.6900        60.2185       0.246454         4.0185         2.4103         4.0744         4.4859         4.0235
    3481.27320         8.5030       0.019174       287.3459       122.8831        72.7100        65.3107       0.249260         4.1821         2.4316         4.2199         4.6336         4.1956
    3481.42560         8.5466       0.016679       285.9205       121.2728        72.3800        68.3596       0.239680         4.2247         2.4490         4.4620         4.9166         4.4707
    3481.57800         8.5681       0.010833       285.9205       121.2728        72.3800        67.6780       0.231780         4.0610         2.4628         4.6836         5.1569         4.7301
    3481.73040         8.5592       0.013067       283.7662       119.5551        72.0900        68.2114       0.227771         3.8745         2.4900         4.8573         5.3405         4.9381
    3481.88280         8.5985       0.016449       284.0593       117.9112        71.2800        69.2060       0.213109         3.6990         2.5130         5.1054         5.6493         5.2136
    3482.03520         8.6266       0.012453       284.0593       117.9112        71.2800        66.5349       0.211227         3.4737         2.5105         5.2705         5.8830         5.3860
    3482.18760         8.6254       0.012393       283.7398       117.1156        70.9800        64.2441       0.219206         3.3903         2.4942         5.2759         5.9176         5.3720
    3482.34000         8.6296       0.018921       283.4681       114.9844        69.3300        66.7682       0.219397         3.5094         2.4822         5.3396         6.0073         5.4019
    3482.49240         8.6277       0.022285       282.9717       114.2536        68.9200        71.0718       0.202713         3.6681         2.4915         5.8013         6.5771         5.8215
