~Version Information Block
VERS .                  2.0:  CWLS LOG ASCII STANDARD - VERSION 2.0
WRAP .                   NO:  One line per depth step
~Well Information Block
#MNEM.UNIT        Data Type   Information
#---------- ----------------  -----------
STRT .M           455.06640:  START DEPTH
STOP .M          3604.71720:  STOP DEPTH
STEP .M             0.15240:  STEP
NULL .              -999.25:  NULL VALUE
COMP .                     :  COMPANY
WELL .          NO_31/1-3_S:  WELL
FLD  .                     :  FIELD
LOC  .                     :  LOCATION
CTRY .                     :  COUNTRY
STAT .                     :  STATE
CNTY .                     :  COUNTY
SRVC .                     :  SERVICE COMPANY
DATE .                     :  DATE
API  .                     :  API NUMBER
UWI  .                     :  UNIQUE WELL ID
~Curve Information Block
#MNEM.UNIT         API CODE   Curve Description
#---------- ----------------  -----------------
DEPTH.M                    :  Loaded from /private/inp/roever_soer_wells.unl.
LFP_CALI.INCHES                 :  Caliper
LFP_DRHO.G/CM3                 :  Density Correction
LFP_DTST_LOG.US/FT                 :  DT Stonely
LFP_DTS_LOG.US/FT                 :  Shear slowness
LFP_DT_LOG.US/FT                 :  Compressional slowness
LFP_GR.API                  :  Gamma Ray (LFP_GR_1 Edited)
LFP_NPHI.V/V                  :  Neutron
LFP_PEF.B/E                  :  Photoelectric Factor
LFP_RHOB_LOG.G/CM3                 :  Density
LFP_RM.OHMM                 :  Medium Resistivity
LFP_RS.OHMM                 :  Shallow Resistivity
LFP_RT_LOG.OHMM                 :  Deep Resistivity
~Parameter Information Block
#MNEM.UNIT            Value   Description
#---------- ----------------  -----------
PROJECT.     LFP@st-vlinapp01:  
SET  .                  LFP:  
~Other Information Block
# 
~A       DEPTH       LFP_CALI       LFP_DRHO   LFP_DTST_LOG    LFP_DTS_LOG     LFP_DT_LOG         LFP_GR       LFP_NPHI        LFP_PEF   LFP_RHOB_LOG         LFP_RM         LFP_RS     LFP_RT_LOG 
# ...
    3354.62880         8.6388       0.012635       281.7226       126.6021        74.6700        82.2429       0.242235         3.7078         2.5221         8.4729         9.2954         8.3529
    3354.78120         8.6381       0.017265       283.1355       127.8127        74.5800        85.6205       0.244757         3.8113         2.5540         8.6727         9.4329         8.5437
    3354.93360         8.6362       0.017284       284.1641       130.0024        75.4700        84.6843       0.238088         3.7833         2.5702         8.9443         9.6497         8.8081
    3355.08600         8.6351       0.019408       284.1641       130.0024        75.4700        84.4463       0.240059         3.7068         2.5571         9.0681         9.7167         8.9316
    3355.23840         8.6120       0.024716       286.3709       131.6456        76.2800        86.5444       0.245306         3.6667         2.5396         9.0388         9.6496         8.9082
    3355.39080         8.6035       0.028831       286.3709       131.6456        76.2800        86.9248       0.234521         3.7239         2.5406         8.9714         9.5757         8.8488
    3355.54320         8.6035       0.027959       286.8943       130.9121        76.0300        86.0030       0.227482         3.8266         2.5549         9.0344         9.6502         8.9185
    3355.69560         8.6154       0.025933       286.6507       131.1202        75.9900        87.1096       0.236400         3.8835         2.5732         9.3092         9.9113         9.1983
    3355.84800         8.6201       0.023414       286.2505       130.5193        75.9800        89.7343       0.237444         3.8808         2.5751         9.6562        10.1733         9.5533
    3356.00040         8.6150       0.018019       285.8059       130.2997        75.8500        92.4577       0.222482         3.7862         2.5581        10.0213        10.4024         9.9301
    3356.15280         8.6177       0.012229       284.5355       129.9677        75.1300        94.2855       0.224005         3.6595         2.5476        10.5011        10.7359        10.4211
    3356.30520         8.6008       0.008895       284.1048       129.0638        75.0100        92.1127       0.201824         3.6204         2.5621        11.3118        11.4450        11.2363
    3356.45760         8.5828       0.006820       282.7722       129.2662        73.7400        87.5011       0.190154         3.6474         2.5874        12.6128        12.7653        12.5287
    3356.61000         8.5810       0.001679       280.3326       128.4746        73.3100        85.9189       0.184915         3.6446         2.5937        13.6861        13.9640        13.5819
    3356.76240         8.5835      -0.002017       280.5814       127.9418        73.4300        85.1214       0.181180         3.5539         2.5803        13.5276        13.8905        13.4046
    3356.91480         8.6147       0.000498       280.0952       127.3086        73.2600        82.8531       0.184759         3.3935         2.5648        12.5523        12.9288        12.4185
    3357.06720         8.6129       0.004408       280.4095       128.5185        73.2500        82.6592       0.189612         3.3265         2.5694        11.3247        11.7429        11.1879
    3357.21960         8.6138       0.007801       280.4095       128.5185        73.2500        88.1832       0.198013         3.4407         2.5894        10.5308        11.0432        10.3878
    3357.37200         8.6145       0.009645       281.9626       128.2287        73.8700        93.5835       0.244245         3.5906         2.5885        10.0459        10.6455         9.8954
    3357.52440         8.6152       0.010457       282.9079       128.3997        73.8700        95.2965       0.249166         3.6631         2.5717         9.9345        10.6013         9.7718
    3357.67680         8.6323       0.012675       284.1521       130.4840        74.1400        96.6456       0.232005         3.6728         2.5660        10.0324        10.7355         9.8553
    3357.82920         8.6315       0.014619       283.1745       131.8650        74.2600        94.1995       0.224996         3.6786         2.5615        10.3144        11.0230        10.1201
    3357.98160         8.6221       0.016541       283.1745       131.8650        74.2600        88.9986       0.220931         3.7227         2.5492        10.7218        11.4168        10.5070
    3358.13400         8.6253       0.020355       282.7040       132.0839        74.8100        87.7987       0.218271         3.8014         2.5577        10.8935        11.5361        10.6676
    3358.28640         8.6036       0.023011       283.8503       132.4986        75.0000        90.2597       0.219552         3.9103         2.5956        10.7095        11.2609        10.4853
    3358.43880         8.5913       0.020072       283.3719       132.2409        75.2600        93.9267       0.240282         3.9648         2.6158        10.4448        10.9078        10.2232
    3358.59120         8.6088       0.016315       284.7278       132.3744        75.7000        97.6823       0.245406         3.8989         2.6062        10.2579        10.6638        10.0318
    3358.74360         8.6099       0.017479       285.6174       132.2868        75.4900        99.1611       0.251475         3.8837         2.5982        10.0453        10.4359         9.8113
    3358.89600         8.6068       0.018064       285.2891       132.3836        75.4200        99.0937       0.258323         3.9675         2.5906         9.9669        10.4022         9.7133
    3359.04840         8.6314       0.014654       285.1595       131.9261        75.3500        95.1047       0.251331         3.9214         2.5735        10.1217        10.6627         9.8297
    3359.20080         8.6123       0.011040       284.5959       131.1219        75.5700        85.8886       0.228023         3.7522         2.5569        10.3066        10.9756         9.9648
    3359.35320         8.6414       0.008287       284.5959       131.1219        75.5700        82.0675       0.220670         3.6649         2.5514        10.0623        10.7964         9.6927
    3359.50560         8.6346       0.007075       283.6917       129.9272        75.1400        84.2701       0.228447         3.6712         2.5580         9.5099        10.2476         9.1350
    3359.65800         8.6287       0.008460       283.6917       129.9272        75.1400        86.6962       0.238419         3.7029         2.5634         9.0357         9.7911         8.6540
    3359.81040         8.6346       0.010200       283.6676       128.9234        74.9600        88.9685       0.231376         3.7066         2.5581         8.7518         9.5754         8.3526
    3359.96280         8.6315       0.009248       284.3952       128.8801        74.7200        89.5148       0.220994         3.6051         2.5491         8.3877         9.2429         7.9860
    3360.11520         8.6326       0.005753       283.3343       129.0924        75.3700        84.8519       0.223372         3.4600         2.5362         8.0921         8.9505         7.6917
    3360.26760         8.6491       0.002458       283.3343       129.0924        75.3700        77.6511       0.222281         3.3868         2.5192         7.9240         8.8094         7.5231
    3360.42000         8.6509       0.000628       284.1028       128.8695        75.2700        74.6395       0.216458         3.3845         2.5086         7.8322         8.7136         7.4349
    3360.57240         8.6570      -0.001361       284.2791       129.7732        75.6300        77.9075       0.228240         3.4304         2.5100         7.8689         8.7029         7.4754
    3360.72480         8.6464      -0.003120       284.2791       129.7732        75.6300        85.9945       0.233261         3.4893         2.5232         8.0469         8.8028         7.6564
    3360.87720         8.6442      -0.000643       284.6750       128.9085        75.4400        90.7670       0.235190         3.4918         2.5350         8.4733         9.1691         8.0761
