~Version Information Block
VERS .                  2.0:  CWLS LOG ASCII STANDARD - VERSION 2.0
WRAP .                   NO:  One line per depth step
~Well Information Block
#MNEM.UNIT        Data Type   Information
#---------- ----------------  -----------
STRT .M          3064.61160:  START DEPTH
STOP .M          3593.28720:  STOP DEPTH
STEP .M             0.15240:  STEP
NULL .              -999.25:  NULL VALUE
COMP .                     :  COMPANY
WELL .          NO_31/1-3_S:  WELL
FLD  .                     :  FIELD
LOC  .                     :  LOCATION
CTRY .                     :  COUNTRY
STAT .                     :  STATE
CNTY .                     :  COUNTY
SRVC .                     :  SERVICE COMPANY
DATE .                     :  DATE
API  .                     :  API NUMBER
UWI  .                     :  UNIQUE WELL ID
~Curve Information Block
#MNEM.UNIT         API CODE   Curve Description
#---------- ----------------  -----------------
DEPTH.M                    :  Loaded from /private/inp/roever_soer_wells.unl.
LFP_K.%                    :  Potassium
LFP_TH.PPM                  :  Thorium
LFP_U.PPM                  :  Uranium
~Parameter Information Block
#MNEM.UNIT            Value   Description
#---------- ----------------  -----------
PROJECT.     LFP@st-vlinapp01:  
SET  .                  LFP:  
~Other Information Block
# 
~A       DEPTH          LFP_K         LFP_TH          LFP_U 
    3064.61160         2.1235         9.4641         3.6971
    3064.76400         2.1531         9.6276         3.6150
    3064.91640         2.2298         9.9611         3.3318
    3065.06880         2.3323        10.3416         3.1059
    3065.22120         2.4073        10.2499         3.0092
    3065.37360         2.4840        10.2779         2.9469
    3065.52600         2.5057        10.5199         3.1090
    3065.67840         2.5108        10.9369         3.2402
    3065.83080         2.5350        11.6307         3.2960
    3065.98320         2.5543        12.2911         3.3934
    3066.13560         2.5962        12.7496         3.3765
    3066.28800         2.6600        12.8354         3.3064
    3066.44040         2.7288        12.5140         3.3033
    3066.59280         2.7790        11.9635         3.3979
    3066.74520         2.7662        11.3988         3.6765
    3066.89760         2.7399        11.0050         4.0475
    3067.05000         2.7366        11.1508         4.3025
    3067.20240         2.8003        11.5285         4.4270
    3067.35480         2.9144        12.0912         4.3587
    3067.50720         3.0495        12.4499         4.2213
    3067.65960         3.1501        12.4948         4.1152
    3067.81200         3.1291        12.2877         4.1985
    3067.96440         3.0218        12.2583         4.2910
    3068.11680         2.9094        12.1404         4.3008
    3068.26920         2.8152        12.3793         4.1059
    3068.42160         2.7811        12.4785         3.8303
    3068.57400         2.8177        12.6889         3.3730
    3068.72640         2.8570        12.9239         2.9858
    3068.87880         2.9196        13.1503         2.6039
    3069.03120         2.9437        13.2507         2.3640
    3069.18360         2.8805        13.1316         2.4043
    3069.33600         2.7887        12.5018         2.6578
    3069.48840         2.6623        11.5452         3.1834
    3069.64080         2.5300        10.5605         3.8120
    3069.79320         2.4861         9.7913         4.3576
    3069.94560         2.4949         9.3407         4.7776
    3070.09800         2.6242         9.4862         4.8347
    3070.25040         2.7698         9.9291         4.7696
    3070.40280         2.9088        10.5287         4.6082
    3070.55520         2.9990        11.2675         4.3952
    3070.70760         3.0355        11.6934         4.3070
    3070.86000         3.0482        11.9762         4.1913
    3071.01240         3.0393        12.2103         4.1061
    3071.16480         3.0054        12.4808         4.0967
    3071.31720         2.9935        12.8140         4.0356
    3071.46960         2.9351        13.2372         4.0425
    3071.62200         2.9072        13.4995         4.0257
    3071.77440         2.8792        13.3737         4.0514
    3071.92680         2.8294        13.2016         4.0513
    3072.07920         2.7568        12.8959         4.1320
    3072.23160         2.6854        12.4646         4.2106
    3072.38400         2.6398        12.2197         4.1886
    3072.53640         2.6307        12.2088         4.0001
    3072.68880         2.6410        12.1077         3.7063
    3072.84120         2.6552        12.1219         3.3043
    3072.99360         2.6403        11.8519         3.0597
    3073.14600         2.5817        11.1666         3.0921
    3073.29840         2.5064        10.5726         3.2624
    3073.45080         2.4453        10.1443         3.4670
    3073.60320         2.3880        10.0451         3.6018
    3073.75560         2.3518        10.2276         3.6110
    3073.90800         2.2949        10.1621         3.6570
    3074.06040         2.2432        10.1771         3.6152
    3074.21280         2.1859         9.8498         3.6847
    3074.36520         2.1479         9.3444         3.8021
    3074.51760         2.1488         9.0385         3.9209
    3074.67000         2.2083         8.7587         3.9580
    3074.82240         2.2673         8.7752         3.9535
    3074.97480         2.3498         8.9911         3.7669
    3075.12720         2.4040         9.1050         3.5585
    3075.27960         2.4432         9.3015         3.3282
    3075.43200         2.4413         9.4164         3.2461
    3075.58440         2.3604         9.4774         3.4335
    3075.73680         2.2959         9.8815         3.5752
    3075.88920         2.2896        10.2466         3.5858
    3076.04160         2.3277        10.6653         3.5049
    3076.19400         2.4408        10.9393         3.3056
    3076.34640         2.5477        11.1238         3.1900
    3076.49880         2.6510        11.2751         3.1339
    3076.65120         2.6731        11.1040         3.0559
    3076.80360         2.5750        10.3835         2.9798
    3076.95600         2.3872         9.4363         2.7494
    3077.10840         2.1599         8.2289         2.4374
    3077.26080         1.9701         7.2024         2.1814
    3077.41320         1.9453         6.7522         2.0188
    3077.56560         2.0221         6.9327         2.0613
    3077.71800         2.2369         7.6536         2.1876
    3077.87040         2.4267         8.5111         2.5059
    3078.02280         2.5265         9.2581         2.9396
    3078.17520         2.5465         9.5621         3.3824
    3078.32760         2.4832         9.5200         3.8532
    3078.48000         2.3712         9.1187         4.2510
    3078.63240         2.3016         9.0546         4.3079
    3078.78480         2.2737         9.0828         4.2885
    3078.93720         2.3292         9.3497         4.0633
    3079.08960         2.4306         9.7106         3.6751
    3079.24200         2.4996         9.9191         3.4392
    3079.39440         2.5117         9.9637         3.3525
    3079.54680         2.4830        10.0445         3.3370
    3079.69920         2.4149         9.8084         3.6333
    3079.85160         2.3967         9.8117         3.7358
    3080.00400         2.4084         9.7620         3.7026
    3080.15640         2.4268         9.6376         3.7091
    3080.30880         2.4533         9.7166         3.5041
    3080.46120         2.4930         9.8478         3.2308
    3080.61360         2.5064         9.8772         3.1626
    3080.76600         2.5235         9.9108         3.1169
    3080.91840         2.5222         9.8848         3.2225
    3081.07080         2.4940         9.8855         3.4388
    3081.22320         2.4413        10.1627         3.6172
    3081.37560         2.4140        10.5294         3.7245
    3081.52800         2.3847        10.8522         3.8245
    3081.68040         2.3975        11.0963         3.7821
    3081.83280         2.4132        10.6963         3.8902
    3081.98520         2.4132         9.9372         4.0955
    3082.13760         2.4535         9.3314         4.0822
    3082.29000         2.5125         8.7649         4.0221
    3082.44240         2.5724         8.6963         3.8765
    3082.59480         2.5975         9.1093         3.6960
    3082.74720         2.6005         9.6300         3.5732
    3082.89960         2.5629        10.1918         3.5292
    3083.05200         2.5212        10.4741         3.4750
    3083.20440         2.5027        10.5175         3.3881
    3083.35680         2.4385        10.4557         3.3419
    3083.50920         2.3829        10.2319         3.2788
    3083.66160         2.2946         9.8741         3.4047
    3083.81400         2.2132         9.4205         3.6653
    3083.96640         2.2191         9.1860         3.7126
    3084.11880         2.2510         9.1096         3.7312
    3084.27120         2.3149         9.1592         3.5482
    3084.42360         2.3979         9.3487         3.2629
    3084.57600         2.4042         9.4431         3.2071
    3084.72840         2.4407         9.3952         3.1985
    3084.88080         2.4563         9.4417         3.2617
