~Version Information Block
VERS .                  2.0:  CWLS LOG ASCII STANDARD - VERSION 2.0
WRAP .                   NO:  One line per depth step
~Well Information Block
#MNEM.UNIT        Data Type   Information
#---------- ----------------  -----------
STRT .M           455.06640:  START DEPTH
STOP .M          3604.71720:  STOP DEPTH
STEP .M             0.15240:  STEP
NULL .              -999.25:  NULL VALUE
COMP .                     :  COMPANY
WELL .          NO_31/1-3_S:  WELL
FLD  .                     :  FIELD
LOC  .                     :  LOCATION
CTRY .                     :  COUNTRY
STAT .                     :  STATE
CNTY .                     :  COUNTY
SRVC .                     :  SERVICE COMPANY
DATE .                     :  DATE
API  .                     :  API NUMBER
UWI  .                     :  UNIQUE WELL ID
~Curve Information Block
#MNEM.UNIT         API CODE   Curve Description
#---------- ----------------  -----------------
DEPTH.M                    :  Loaded from /private/inp/roever_soer_wells.unl.
LFP_CALI.INCHES                 :  Caliper
LFP_DRHO.G/CM3                 :  Density Correction
LFP_DTST_LOG.US/FT                 :  DT Stonely
LFP_DTS_LOG.US/FT                 :  Shear slowness
LFP_DT_LOG.US/FT                 :  Compressional slowness
LFP_GR.API                  :  Gamma Ray (LFP_GR_1 Edited)
LFP_NPHI.V/V                  :  Neutron
LFP_PEF.B/E                  :  Photoelectric Factor
LFP_RHOB_LOG.G/CM3                 :  Density
LFP_RM.OHMM                 :  Medium Resistivity
LFP_RS.OHMM                 :  Shallow Resistivity
LFP_RT_LOG.OHMM                 :  Deep Resistivity
~Parameter Information Block
#MNEM.UNIT            Value   Description
#---------- ----------------  -----------
PROJECT.     LFP@st-vlinapp01:  
SET  .                  LFP:  
~Other Information Block
# 
~A       DEPTH       LFP_CALI       LFP_DRHO   LFP_DTST_LOG    LFP_DTS_LOG     LFP_DT_LOG         LFP_GR       LFP_NPHI        LFP_PEF   LFP_RHOB_LOG         LFP_RM         LFP_RS     LFP_RT_LOG 
# ...
    3591.45840         8.9191       0.017682       303.2012       118.0031        74.3100        46.9783       0.149621         3.9326         2.4220         3.7588         4.1421         4.1783
    3591.61080         8.9523       0.015564       302.8040       117.1638        74.7400        49.8307       0.150138         4.0183         2.4181         3.8068         4.1756         4.2443
    3591.76320         8.8902       0.013568       302.7086       116.7638        74.5600        51.3431       0.143690         3.6924         2.4071         3.8003         4.1622         4.2427
    3591.91560         8.8527       0.013542       300.7369       117.3740        73.4700        46.2794       0.147647         3.3311         2.3975         3.7019         4.0475         4.1252
    3592.06800         8.8531       0.012396       302.7498       118.4980        73.0800        46.9853       0.144522         3.3614         2.3922         3.6133         3.9358         4.0131
    3592.22040         8.8714       0.009541       302.9317       118.4912        73.3500        46.3467       0.147973         3.6412         2.3859         3.7324         4.0353         4.1445
    3592.37280         8.9234       0.009919       302.3800       118.8739        73.0000        50.9331       0.146261         3.7999         2.3948         4.1443         4.3995         4.6156
    3592.52520         8.9295       0.011268       300.9297       118.5897        72.6500        48.6222       0.145182         3.7907         2.4298         4.4126         4.4840         4.8858
    3592.67760         8.9908       0.005296       298.0264       117.7623        72.1900        50.8956       0.143141         3.8694         2.4824         3.7164         3.6377         4.0828
    3592.83000         8.9787      -0.008064       298.0048       118.6337        72.2000        49.5348       0.137102         4.0267         2.5229         2.8931         2.8105         3.1621
    3592.98240         8.9587      -0.014938       300.0110       118.0020        72.0000        48.6761       0.142130         4.0872         2.5211         2.7878         2.7770         3.0306
    3593.13480         8.9789      -0.005379       298.7314       116.3624        71.5700        49.2852       0.155812         4.1463         2.5096         3.3839         3.4415         3.6497
    3593.28720         8.9940       0.004905       299.1581       116.2267        71.3400        60.8256       0.153892         4.2905         2.5107         4.6027         4.7412         4.9907
    3593.43960         9.0010       0.009199       299.1867       116.1823        71.3500        67.9538       0.142317         4.3689         2.5126         5.3261         5.4567         5.7530
    3593.59200         9.0077       0.012789       299.2348       115.6523        71.3000        70.8505       0.143252         4.3161         2.5144         5.8411         5.9377         6.2817
    3593.74440         9.0083       0.014557       299.7260       115.0081        71.3000        78.5275       0.142235         4.2745         2.5150         6.0544         6.1309         6.4974
    3593.89680         9.0088       0.018550       300.3002       114.1032        70.7900        64.6665       0.142740         4.3579         2.5100         5.9670         6.1126         6.3869
    3594.04920         9.0005       0.023301       300.3686       113.7408        70.7900        57.7453       0.137909         4.4437         2.4893         6.1053         6.3968         6.5097
    3594.20160         9.0395       0.027172       297.6564       112.7741        70.1600        60.9038       0.140243         4.3683         2.4833         6.6186         7.0937         7.0342
    3594.35400         9.0432       0.032324       298.7781       112.1857        69.8600        61.6558       0.133294         4.1685         2.5168         7.1668         7.7179         7.5707
    3594.50640         8.9379       0.034339       300.7398       111.8672        69.6300        59.3322       0.126586         3.9480         2.5372         7.5422         8.0054         7.8815
    3594.65880         8.9787       0.035983       300.9550       109.8676        68.1200        53.8751       0.124732         3.8505         2.5267         8.1047         8.4808         8.3662
    3594.81120         8.9854       0.037753       301.0857       109.2738        67.7300        49.4024       0.113151         3.8930         2.5217         9.3220         9.6705         9.4950
    3594.96360         8.9853       0.033727       300.8314       108.9426        67.8900        50.8403       0.102505         3.9415         2.5176        11.1772        11.3538        11.1778
    3595.11600         8.9861       0.030700       299.6340       108.2127        67.7300        50.1559       0.096277         3.9221         2.5114        12.2421        12.0750        11.9129
    3595.26840         8.9880       0.029670       299.2040       107.8970        67.7100        51.9913       0.098771         3.8036         2.5177        12.3193        12.1045        11.6418
    3595.42080         8.9875       0.025455       299.2793       108.1682        66.9700        61.4285       0.094321         3.6571         2.5220        11.4684        11.6405        10.5775
    3595.57320         8.9918       0.024808       297.9167       109.4258        67.1100        55.3149       0.085250         3.6412         2.5233        10.4688        11.1905         9.4984
    3595.72560         8.9943       0.028084       297.1533       107.9305        66.5300        53.8403       0.087392         3.7802         2.5240        10.0314        11.3180         8.9559
    3595.87800         8.9945       0.029112       298.8155       107.2964        65.9200        56.8610       0.098772         3.9549         2.5166         9.5443        11.2469         8.4304
    3596.03040         8.9950       0.029026       299.9326       107.5917        65.6200        60.3770       0.103420         4.1025         2.5160         8.5685        10.2785         7.5715
    3596.18280         8.9942       0.026965       301.2131       107.5216        65.7200        62.3379       0.099803         4.1559         2.5213         7.8582         9.4422         6.9575
    3596.33520         8.9856       0.023170       299.7578       106.8672        65.3500        58.1008       0.102150         4.1290         2.5180         7.8883         9.5212         6.9459
    3596.48760         8.9255       0.018290       299.9662       107.6007        65.5200        53.9822       0.106180         4.2958         2.4945         8.9075        11.0038         7.7012
    3596.64000         8.9371       0.012879       299.7043       108.4061        65.4900        51.7396    -999.250000         4.5570         2.4746        10.5849        13.5562         8.9115
    3596.79240         8.8779       0.012294       298.6678       108.3431        65.8300        48.5893    -999.250000         4.4360         2.5034        12.4205        16.4794        10.1778
    3596.94480         8.8632       0.014798       299.0941       107.4538      -999.2500        47.0430    -999.250000         4.1176         2.5471        13.0665        17.5993        10.6164
    3597.09720         8.8669       0.015242       298.9569       108.1890      -999.2500        43.1565    -999.250000         4.0455         2.5557        11.8084        15.7484         9.7867
    3597.24960         8.8716       0.014573       299.0619      -999.2500      -999.2500        41.5692    -999.250000         4.1086         2.5380         9.4583        12.1209         8.1377
    3597.40200         8.8735       0.014965      -999.2500      -999.2500      -999.2500        41.4194    -999.250000         4.0500         2.5051         6.9381         8.3885         6.2228
    3597.55440         8.9615       0.015051      -999.2500      -999.2500      -999.2500        45.2268    -999.250000         3.8132         2.4678         5.2403         6.1253         4.8423
    3597.70680         8.9779       0.015057      -999.2500      -999.2500      -999.2500        47.2130    -999.250000         3.5871         2.4408         4.4989         5.2595         4.2235
