~Version Information Block
VERS .                  2.0:  CWLS LOG ASCII STANDARD - VERSION 2.0
WRAP .                   NO:  One line per depth step
~Well Information Block
#MNEM.UNIT        Data Type   Information
#---------- ----------------  -----------
STRT .M          3064.61160:  START DEPTH
STOP .M          3593.28720:  STOP DEPTH
STEP .M             0.15240:  STEP
NULL .              -999.25:  NULL VALUE
COMP .                     :  COMPANY
WELL .          NO_31/1-3_S:  WELL
FLD  .                     :  FIELD
LOC  .                     :  LOCATION
CTRY .                     :  COUNTRY
STAT .                     :  STATE
CNTY .                     :  COUNTY
SRVC .                     :  SERVICE COMPANY
DATE .                     :  DATE
API  .                     :  API NUMBER
UWI  .                     :  UNIQUE WELL ID
~Curve Information Block
#MNEM.UNIT         API CODE   Curve Description
#---------- ----------------  -----------------
DEPTH.M                    :  Loaded from /private/inp/roever_soer_wells.unl.
LFP_K.%                    :  Potassium
LFP_TH.PPM                  :  Thorium
LFP_U.PPM                  :  Uranium
~Parameter Information Block
#MNEM.UNIT            Value   Description
#---------- ----------------  -----------
PROJECT.     LFP@st-vlinapp01:  
SET  .                  LFP:  
~Other Information Block
# 
~A       DEPTH          LFP_K         LFP_TH          LFP_U 
# ...
    3473.04360         0.8949        12.7051         2.3402
    3473.19600         0.8528        12.3806         2.3761
    3473.34840         0.8434        12.2014         2.3171
    3473.50080         0.8880        12.0350         2.2043
    3473.65320         0.9906        11.9532         2.1173
    3473.80560         1.1691        11.7021         2.1223
    3473.95800         1.4179        11.1812         2.3215
    3474.11040         1.7311        10.4608         2.5664
    3474.26280         2.0372         9.6289         2.8125
    3474.41520         2.2876         9.1240         2.9887
    3474.56760         2.4450         9.0554         3.1159
    3474.72000         2.5290         9.4144         3.1986
    3474.87240         2.5641         9.9095         3.2686
    3475.02480         2.6060        10.2099         3.2768
    3475.17720         2.6590        10.4787         3.1843
    3475.32960         2.7003        10.4627         3.0765
    3475.48200         2.7267        10.4756         2.9549
    3475.63440         2.7235        10.3193         3.0401
    3475.78680         2.6919        10.0486         3.2847
    3475.93920         2.7311        10.0717         3.4048
    3476.09160         2.8056        10.3933         3.4127
    3476.24400         2.8004        10.8860         3.2780
    3476.39640         2.6971        11.2997         2.9562
    3476.54880         2.4368        10.9327         2.7916
    3476.70120         2.0598         9.8049         2.8498
    3476.85360         1.6776         8.4926         3.0718
    3477.00600         1.4133         7.2720         3.3640
    3477.15840         1.2691         6.6083         3.4534
    3477.31080         1.2614         6.4560         3.2345
    3477.46320         1.2879         6.3440         2.8588
    3477.61560         1.3122         6.0749         2.4275
    3477.76800         1.3404         5.7738         2.0241
    3477.92040         1.3390         5.3446         1.8461
    3478.07280         1.3025         5.0620         1.8258
    3478.22520         1.2796         4.9816         1.8203
    3478.37760         1.2563         5.0011         1.7794
    3478.53000         1.2794         5.0666         1.6374
    3478.68240         1.3296         5.2079         1.4549
    3478.83480         1.3735         5.3071         1.3393
    3478.98720         1.4053         5.5264         1.2629
    3479.13960         1.3834         5.6668         1.3632
    3479.29200         1.3263         5.8398         1.5835
    3479.44440         1.2657         5.9839         1.7781
    3479.59680         1.2332         5.9573         1.9436
    3479.74920         1.2547         5.8235         1.9911
    3479.90160         1.3066         5.7611         1.8869
    3480.05400         1.3503         5.6178         1.8037
    3480.20640         1.3750         5.5447         1.7757
    3480.35880         1.3826         5.7753         1.7247
    3480.51120         1.3848         6.0520         1.7514
    3480.66360         1.4069         6.3856         1.7235
    3480.81600         1.4398         6.7828         1.6618
    3480.96840         1.5040         7.0014         1.6203
    3481.12080         1.6097         7.2713         1.5279
    3481.27320         1.6900         7.4224         1.5596
    3481.42560         1.7583         7.4722         1.6855
    3481.57800         1.7940         7.4819         1.8597
    3481.73040         1.7609         7.1586         2.1907
    3481.88280         1.7081         6.6897         2.5129
    3482.03520         1.6833         6.4136         2.6474
    3482.18760         1.6621         6.4479         2.6839
    3482.34000         1.7051         6.8558         2.5481
    3482.49240         1.7698         7.5983         2.3364
    3482.64480         1.8258         8.1814         2.2586
    3482.79720         1.8817         8.7345         2.1729
    3482.94960         1.8797         9.2798         2.1604
    3483.10200         1.8305         9.5926         2.2684
    3483.25440         1.7867         9.9560         2.3050
    3483.40680         1.7384        10.2383         2.3991
    3483.55920         1.7026        10.3502         2.5222
    3483.71160         1.7067        10.2050         2.7008
    3483.86400         1.7464         9.9687         2.8806
    3484.01640         1.7885        10.0686         2.9679
    3484.16880         1.8276        10.2513         3.0782
    3484.32120         1.8084        10.4745         3.2795
    3484.47360         1.7246        10.8769         3.5475
    3484.62600         1.6599        11.0935         3.7405
    3484.77840         1.6006        11.0632         3.7819
    3484.93080         1.5852        10.8119         3.5820
    3485.08320         1.6267        10.3869         3.0826
    3485.23560         1.6297         9.5532         2.6520
    3485.38800         1.6076         8.7264         2.3105
    3485.54040         1.5571         7.7540         2.2010
    3485.69280         1.5279         6.8911         2.2008
    3485.84520         1.5718         6.5262         2.0995
    3485.99760         1.6748         6.2891         2.0420
    3486.15000         1.8101         6.2035         2.0688
    3486.30240         1.9697         6.2242         2.1587
    3486.45480         2.1309         6.0310         2.3960
    3486.60720         2.2243         5.8872         2.6651
    3486.75960         2.2379         5.9020         2.9039
    3486.91200         2.2305         6.3518         2.8246
    3487.06440         2.1657         7.1385         2.5909
    3487.21680         2.1426         7.9819         2.2222
    3487.36920         2.1421         8.7474         1.8840
    3487.52160         2.1620         8.9951         1.7384
    3487.67400         2.1991         8.6119         1.8622
    3487.82640         2.1919         8.0340         2.1463
    3487.97880         2.1760         7.5870         2.3743
    3488.13120         2.1767         7.4233         2.4358
    3488.28360         2.1713         7.5549         2.3632
    3488.43600         2.1787         7.9233         2.1622
    3488.58840         2.1692         8.2103         2.0455
    3488.74080         2.1206         8.3240         2.0112
    3488.89320         2.0989         8.4039         2.0055
    3489.04560         2.0856         8.2239         2.0552
    3489.19800         2.0604         7.9745         2.1635
    3489.35040         2.0661         7.6617         2.2915
    3489.50280         2.0439         7.2737         2.4623
    3489.65520         1.9980         6.9963         2.6440
    3489.80760         2.0164         6.9718         2.6429
    3489.96000         2.0106         6.9551         2.5933
    3490.11240         2.0226         7.3132         2.4571
    3490.26480         2.0667         7.7408         2.2398
    3490.41720         2.0823         8.1447         2.0858
    3490.56960         2.1019         8.2529         2.0417
    3490.72200         2.1393         7.9566         2.0538
    3490.87440         2.1622         7.5699         2.0715
    3491.02680         2.1527         7.2530         2.1872
    3491.17920         2.1372         6.9713         2.3241
    3491.33160         2.0942         7.0516         2.4192
    3491.48400         2.1282         7.2605         2.3767
    3491.63640         2.2488         7.6186         2.1892
    3491.78880         2.4104         7.9731         2.0207
    3491.94120         2.5805         8.0182         2.1065
    3492.09360         2.6858         7.9183         2.5193
    3492.24600         2.6342         7.4874         3.2694
    3492.39840         2.5015         7.1214         3.9274
    3492.55080         2.2870         7.0180         4.3609
    3492.70320         2.1068         7.1554         4.3489
    3492.85560         2.0239         7.4895         4.0491
    3493.00800         2.0294         7.8295         3.7154
    3493.16040         2.1008         8.0664         3.4571
    3493.31280         2.1909         8.3505         3.3220
