~Version Information Block
VERS .                  2.0:  CWLS LOG ASCII STANDARD - VERSION 2.0
WRAP .                   NO:  One line per depth step
~Well Information Block
#MNEM.UNIT        Data Type   Information
#---------- ----------------  -----------
STRT .M          3064.61160:  START DEPTH
STOP .M          3593.28720:  STOP DEPTH
STEP .M             0.15240:  STEP
NULL .              -999.25:  NULL VALUE
COMP .                     :  COMPANY
WELL .          NO_31/1-3_S:  WELL
FLD  .                     :  FIELD
LOC  .                     :  LOCATION
CTRY .                     :  COUNTRY
STAT .                     :  STATE
CNTY .                     :  COUNTY
SRVC .                     :  SERVICE COMPANY
DATE .                     :  DATE
API  .                     :  API NUMBER
UWI  .                     :  UNIQUE WELL ID
~Curve Information Block
#MNEM.UNIT         API CODE   Curve Description
#---------- ----------------  -----------------
DEPTH.M                    :  Loaded from /private/inp/roever_soer_wells.unl.
LFP_K.%                    :  Potassium
LFP_TH.PPM                  :  Thorium
LFP_U.PPM                  :  Uranium
~Parameter Information Block
#MNEM.UNIT            Value   Description
#---------- ----------------  -----------
PROJECT.     LFP@st-vlinapp01:  
SET  .                  LFP:  
~Other Information Block
# 
~A       DEPTH          LFP_K         LFP_TH          LFP_U 
# ...
    3207.56280         2.2051        11.7358         4.0751
    3207.71520         2.2908        12.2670         3.9980
    3207.86760         2.3526        12.8988         3.9027
    3208.02000         2.4123        13.4635         3.8895
    3208.17240         2.4900        14.1744         3.7520
    3208.32480         2.5229        14.6884         3.6000
    3208.47720         2.4068        14.3771         3.6233
    3208.62960         2.2259        13.5058         3.5311
    3208.78200         1.9884        11.9648         3.4835
    3208.93440         1.8113        10.6130         3.3660
    3209.08680         1.7453        10.1463         3.1780
    3209.23920         1.7666        10.1742         3.2521
    3209.39160         1.8273        10.7485         3.4721
    3209.54400         1.8981        11.3797         3.7191
    3209.69640         1.9565        11.4587         3.8963
    3209.84880         2.0564        11.4489         3.8207
    3210.00120         2.1610        11.3439         3.7162
    3210.15360         2.3094        11.4264         3.6911
    3210.30600         2.4390        11.7162         3.6925
    3210.45840         2.5242        11.8927         3.7424
    3210.61080         2.5356        11.9683         3.8046
    3210.76320         2.4941        11.9651         3.8492
    3210.91560         2.4175        12.1056         3.8296
    3211.06800         2.3314        12.0839         3.7291
    3211.22040         2.1722        11.7768         3.5699
    3211.37280         1.9963        11.0208         3.3494
    3211.52520         1.8381        10.1257         2.9679
    3211.67760         1.7732         9.5165         2.5786
    3211.83000         1.8181         9.5779         2.3449
    3211.98240         1.9377        10.1840         2.4196
    3212.13480         2.0932        11.1525         2.8448
    3212.28720         2.2186        11.8961         3.6487
    3212.43960         2.3074        12.3198         4.4160
    3212.59200         2.4023        12.3709         4.8690
    3212.74440         2.4753        12.5336         4.8624
    3212.89680         2.5457        12.4430         4.4599
    3213.04920         2.5282        12.4365         3.9847
    3213.20160         2.4278        12.4372         3.6808
    3213.35400         2.3652        12.3718         3.4968
    3213.50640         2.2926        12.5009         3.6068
    3213.65880         2.2657        12.8114         3.7849
    3213.81120         2.2516        13.1183         3.8726
    3213.96360         2.2059        13.3475         3.8627
    3214.11600         2.1819        13.1739         3.8070
    3214.26840         2.1686        12.7305         3.8307
    3214.42080         2.1194        12.1692         4.2245
    3214.57320         2.1613        11.5060         4.6357
    3214.72560         2.2384        11.1174         4.9474
    3214.87800         2.3220        11.1752         5.0453
    3215.03040         2.4541        11.6140         4.8226
    3215.18280         2.5860        12.4150         4.4930
    3215.33520         2.6887        13.1917         4.3621
    3215.48760         2.8112        13.8677         4.1397
    3215.64000         2.8856        14.1655         4.0721
    3215.79240         2.9395        14.1600         3.9969
    3215.94480         2.9426        14.0259         4.0017
    3216.09720         2.8363        13.7625         4.3293
    3216.24960         2.6808        13.6121         4.7379
    3216.40200         2.5426        13.3820         5.0738
    3216.55440         2.4496        13.4081         5.2701
    3216.70680         2.4641        13.7156         5.0123
    3216.85920         2.5474        14.0422         4.5975
    3217.01160         2.6035        14.2395         4.2823
    3217.16400         2.5966        14.3445         4.0502
    3217.31640         2.5279        14.1446         4.1071
    3217.46880         2.4939        14.0922         4.1116
    3217.62120         2.5223        14.0564         4.0536
    3217.77360         2.6380        14.2681         3.9413
    3217.92600         2.7865        14.0619         3.8733
    3218.07840         2.8694        13.4122         3.8233
    3218.23080         2.7513        12.0947         3.7906
    3218.38320         2.4449        10.8189         3.5333
    3218.53560         2.0296         9.8205         3.3128
    3218.68800         1.7004         9.3293         3.2095
    3218.84040         1.5536         9.6759         3.4152
    3218.99280         1.6401        10.3803         3.7780
    3219.14520         1.8360        10.7597         4.1251
    3219.29760         1.9836        10.9433         4.1684
    3219.45000         1.9757        10.0879         3.8783
    3219.60240         1.7366         8.4667         3.4325
    3219.75480         1.3956         6.8575         2.8476
    3219.90720         1.0790         4.9807         2.3421
    3220.05960         0.8074         3.4706         2.0221
    3220.21200         0.6640         2.6981         1.7436
    3220.36440         0.6444         2.3186         1.6183
    3220.51680         0.6649         2.4966         1.7288
    3220.66920         0.7224         3.1169         1.9432
    3220.82160         0.8243         3.8385         2.2331
    3220.97400         0.9347         5.0077         2.5406
    3221.12640         1.1522         6.8472         2.6947
    3221.27880         1.3787         8.8957         2.9053
    3221.43120         1.6059        10.8643         3.2326
    3221.58360         1.7755        12.6855         3.5942
    3221.73600         1.7980        13.7109         3.9934
    3221.88840         1.7107        14.1002         4.2823
    3222.04080         1.5404        14.0523         4.3621
    3222.19320         1.3488        13.3764         4.4698
    3222.34560         1.2636        12.6853         4.4139
    3222.49800         1.2201        12.1191         4.3722
    3222.65040         1.2792        11.7623         4.3136
    3222.80280         1.3446        11.7762         4.2381
    3222.95520         1.3573        11.6346         4.2001
    3223.10760         1.3894        11.5065         4.0606
    3223.26000         1.4155        11.2051         4.0118
    3223.41240         1.4650        10.8878         3.9305
    3223.56480         1.5646        11.1036         3.6757
    3223.71720         1.6513        11.7997         3.5170
    3223.86960         1.7942        12.5904         3.2586
    3224.02200         1.9736        13.2392         3.0800
    3224.17440         2.1708        13.2567         3.0695
    3224.32680         2.3044        12.7686         3.2291
    3224.47920         2.3255        11.9388         3.4846
    3224.63160         2.2298        10.9660         3.7261
    3224.78400         2.0672        10.1059         3.8251
    3224.93640         1.9218         9.5930         3.6975
    3225.08880         1.8634         9.2415         3.4215
    3225.24120         1.8332         8.9900         3.2692
    3225.39360         1.8666         9.1161         3.0494
    3225.54600         1.9198         9.6450         2.9980
    3225.69840         1.9991        10.5828         3.0410
    3225.85080         2.1764        11.7225         3.1141
    3226.00320         2.3954        12.6356         3.3274
    3226.15560         2.6435        13.2389         3.4183
    3226.30800         2.8856        13.5373         3.2988
    3226.46040         3.0520        13.8590         3.0059
    3226.61280         3.1271        14.0575         2.6291
    3226.76520         3.0706        14.0372         2.5249
    3226.91760         2.8876        13.6506         2.6799
    3227.07000         2.6303        12.9529         2.9759
    3227.22240         2.3371        12.0276         3.2266
    3227.37480         2.1352        11.5082         3.1858
    3227.52720         2.0233        11.5193         3.0306
    3227.67960         1.9987        11.6901         2.9454
    3227.83200         2.0531        11.9852         2.9694
