~Version Information Block
VERS .                  2.0:  CWLS LOG ASCII STANDARD - VERSION 2.0
WRAP .                   NO:  One line per depth step
~Well Information Block
#MNEM.UNIT        Data Type   Information
#---------- ----------------  -----------
STRT .M           455.06640:  START DEPTH
STOP .M          3604.71720:  STOP DEPTH
STEP .M             0.15240:  STEP
NULL .              -999.25:  NULL VALUE
COMP .                     :  COMPANY
WELL .          NO_31/1-3_S:  WELL
FLD  .                     :  FIELD
LOC  .                     :  LOCATION
CTRY .                     :  COUNTRY
STAT .                     :  STATE
CNTY .                     :  COUNTY
SRVC .                     :  SERVICE COMPANY
DATE .                     :  DATE
API  .                     :  API NUMBER
UWI  .                     :  UNIQUE WELL ID
~Curve Information Block
#MNEM.UNIT         API CODE   Curve Description
#---------- ----------------  -----------------
DEPTH.M                    :  Loaded from /private/inp/roever_soer_wells.unl.
LFP_CALI.INCHES                 :  Caliper
LFP_DRHO.G/CM3                 :  Density Correction
LFP_DTST_LOG.US/FT                 :  DT Stonely
LFP_DTS_LOG.US/FT                 :  Shear slowness
LFP_DT_LOG.US/FT                 :  Compressional slowness
LFP_GR.API                  :  Gamma Ray (LFP_GR_1 Edited)
LFP_NPHI.V/V                  :  Neutron
LFP_PEF.B/E                  :  Photoelectric Factor
LFP_RHOB_LOG.G/CM3                 :  Density
LFP_RM.OHMM                 :  Medium Resistivity
LFP_RS.OHMM                 :  Shallow Resistivity
LFP_RT_LOG.OHMM                 :  Deep Resistivity
~Parameter Information Block
#MNEM.UNIT            Value   Description
#---------- ----------------  -----------
PROJECT.     LFP@st-vlinapp01:  
SET  .                  LFP:  
~Other Information Block
# 
~A       DEPTH       LFP_CALI       LFP_DRHO   LFP_DTST_LOG    LFP_DTS_LOG     LFP_DT_LOG         LFP_GR       LFP_NPHI        LFP_PEF   LFP_RHOB_LOG         LFP_RM         LFP_RS     LFP_RT_LOG 
# ...
    2272.89360        12.3790       0.017843      -999.2500       245.3166       110.2673        50.2341       0.301772         5.9060         2.4186         1.1243         1.1802         1.1413
    2273.04600        12.3666       0.035108      -999.2500       243.9732       110.5345        60.6711       0.309293         5.8111         2.4538         1.1215         1.1697         1.1461
    2273.19840        12.3246       0.026768      -999.2500       243.7013       110.3639        62.1159       0.339941         5.6748         2.4442         1.1456         1.1804         1.1681
    2273.35080        12.3139       0.020877      -999.2500       244.0081       109.8061        60.2803       0.326371         5.4886         2.4345         1.1573         1.1981         1.1842
    2273.50320        12.2789       0.026860      -999.2500       245.1844       109.8140        51.0003       0.303415         5.1392         2.4507         1.1655         1.2195         1.1864
    2273.65560        12.2666       0.022380      -999.2500       244.2059       109.9117        65.9777       0.307230         5.2839         2.4321         1.1576         1.2222         1.1768
    2273.80800        12.3068       0.022352      -999.2500       235.4518       110.2389        63.0624       0.308770         5.5747         2.4357         1.1481         1.2165         1.1694
    2273.96040        12.3139       0.021429      -999.2500       228.2271       110.4530        59.1645       0.323811         5.7651         2.4449         1.1387         1.2003         1.1597
    2274.11280        12.3492       0.023502      -999.2500       227.2649       110.0857        60.8812       0.324089         5.8867         2.4589         1.1382         1.1920         1.1608
    2274.26520        12.3790       0.032743      -999.2500       227.6367       109.9042        56.1853       0.312688         6.1252         2.4669         1.1449         1.1875         1.1827
    2274.41760        12.3712       0.032216      -999.2500       227.8912       109.7082        55.6465       0.325489         6.1349         2.4491         1.1950         1.2291         1.2320
    2274.57000        12.3287       0.025712      -999.2500       228.4861       108.9558        57.3851       0.322951         5.8023         2.4350         1.2110         1.2616         1.2365
    2274.72240        12.3139       0.007095      -999.2500       228.2314       108.8141        61.0813       0.322169         5.7530         2.4001         1.2033         1.2595         1.2271
    2274.87480        12.3140       0.029946      -999.2500       226.6531       108.9137        68.0480       0.317623         5.4847         2.4338         1.1893         1.2441         1.2228
    2275.02720        12.3046       0.030067      -999.2500       226.0488       108.9360        69.9385       0.330884         5.5300         2.4343         1.1756         1.2311         1.1973
    2275.17960        12.2521       0.031691      -999.2500       225.4521       108.5691        55.3375       0.322858         5.8160         2.4389         1.1706         1.2223         1.1966
    2275.33200        12.3065       0.046883      -999.2500       225.6299       107.5442        58.5054       0.346776         6.0810         2.4657         1.1674         1.2077         1.2024
    2275.48440        12.3096       0.034435      -999.2500       225.8117       106.5326        64.7340       0.317595         5.8480         2.4609         1.2061         1.2491         1.2469
    2275.63680        12.2894       0.030138      -999.2500       225.7172       106.1579        56.1797       0.311092         6.0850         2.4475         1.2569         1.3213         1.2888
    2275.78920        12.2618       0.026501      -999.2500       225.8800       106.2823        60.3074       0.317479         5.9431         2.4704         1.2603         1.3295         1.2855
    2275.94160        12.3029       0.012054      -999.2500       226.8786       107.1068        54.0831       0.324302         5.4940         2.4456         1.2242         1.3088         1.2395
    2276.09400        12.3130       0.018666      -999.2500       227.3478       107.5794        59.0114       0.317305         5.5729         2.4462         1.1724         1.2422         1.1923
    2276.24640        12.3231       0.023302      -999.2500       228.0994       108.5152        63.0688       0.316933         5.8731         2.4433         1.1821         1.2312         1.2173
    2276.39880        12.3685       0.029885      -999.2500       227.3557       108.7472        61.4128       0.289169         6.3498         2.4408         1.1739         1.2193         1.2073
    2276.55120        12.3780       0.036850      -999.2500       225.0415       108.9865        64.1391       0.286082         6.3007         2.4426         1.1538         1.1975         1.1726
    2276.70360        12.3392       0.043890      -999.2500       223.8994       109.0216        67.5485       0.326834         6.4779         2.4468         1.1411         1.2009         1.1749
    2276.85600        12.3373       0.049716      -999.2500       225.3779       108.2855        66.6346       0.324376         6.6829         2.4489         1.1355         1.2048         1.1735
    2277.00840        12.4384       0.050052      -999.2500       226.0714       107.6958        59.7675       0.305758         6.8829         2.4401         1.1435         1.2131         1.1930
    2277.16080        12.3770       0.039941      -999.2500       226.2938       106.7427        50.6831       0.304808         6.1028         2.4510         1.1918         1.2547         1.2311
    2277.31320        12.3196       0.031337      -999.2500       226.0833       106.4587        48.2374       0.312874         5.9697         2.4453         1.2396         1.3009         1.2746
    2277.46560        12.3353       0.040667      -999.2500       225.4102       106.3031        62.1645       0.324811         6.4414         2.4517         1.2729         1.3477         1.2979
    2277.61800        12.3651       0.049098      -999.2500       223.7159       105.8997        56.8128       0.328428         6.7905         2.4656         1.2855         1.3656         1.3021
    2277.77040        12.3428       0.039706      -999.2500       223.3497       105.1431        54.2523       0.321711         6.1652         2.4755         1.2989         1.3831         1.3127
    2277.92280        12.3233       0.031282      -999.2500       223.4464       103.9354        54.0086       0.320572         5.6624         2.4611         1.3077         1.3918         1.3185
    2278.07520        12.3131       0.023772      -999.2500       224.2437       104.1788        53.0616       0.318758         5.7910         2.4367         1.2979         1.3838         1.3115
    2278.22760        12.3131       0.045056      -999.2500       225.6113       105.2793        61.8597       0.313415         6.6942         2.4465         1.2945         1.3762         1.3169
    2278.38000        12.2945       0.035725      -999.2500       225.6481       105.4482        64.0920       0.300435         6.3108         2.4560         1.3030         1.3787         1.3267
    2278.53240        12.2649       0.035965      -999.2500       225.0622       105.2568        56.2096       0.307912         6.0063         2.4697         1.2824         1.3669         1.3070
    2278.68480        12.3131       0.025379      -999.2500       224.8680       105.2631        58.6000       0.311420         5.6016         2.4422         1.2628         1.3423         1.2819
    2278.83720        12.2591       0.027120      -999.2500       224.5886       105.6317        60.6667       0.309115         5.9293         2.4533         1.2512         1.3267         1.2765
    2278.98960        12.2481       0.027876      -999.2500       224.5085       105.9424        52.8835       0.302506         5.9096         2.4545         1.2296         1.3040         1.2645
    2279.14200        12.2583       0.016400      -999.2500       225.1555       105.9695        54.7575       0.301812         5.1501         2.4403         1.2189         1.2918         1.2497
