~Version Information Block
VERS .                  2.0:  CWLS LOG ASCII STANDARD - VERSION 2.0
WRAP .                   NO:  One line per depth step
~Well Information Block
#MNEM.UNIT        Data Type   Information
#---------- ----------------  -----------
STRT .M           455.06640:  START DEPTH
STOP .M          3604.71720:  STOP DEPTH
STEP .M             0.15240:  STEP
NULL .              -999.25:  NULL VALUE
COMP .                     :  COMPANY
WELL .          NO_31/1-3_S:  WELL
FLD  .                     :  FIELD
LOC  .                     :  LOCATION
CTRY .                     :  COUNTRY
STAT .                     :  STATE
CNTY .                     :  COUNTY
SRVC .                     :  SERVICE COMPANY
DATE .                     :  DATE
API  .                     :  API NUMBER
UWI  .                     :  UNIQUE WELL ID
~Curve Information Block
#MNEM.UNIT         API CODE   Curve Description
#---------- ----------------  -----------------
DEPTH.M                    :  Loaded from /private/inp/roever_soer_wells.unl.
LFP_CALI.INCHES                 :  Caliper
LFP_DRHO.G/CM3                 :  Density Correction
LFP_DTST_LOG.US/FT                 :  DT Stonely
LFP_DTS_LOG.US/FT                 :  Shear slowness
LFP_DT_LOG.US/FT                 :  Compressional slowness
LFP_GR.API                  :  Gamma Ray (LFP_GR_1 Edited)
LFP_NPHI.V/V                  :  Neutron
LFP_PEF.B/E                  :  Photoelectric Factor
LFP_RHOB_LOG.G/CM3                 :  Density
LFP_RM.OHMM                 :  Medium Resistivity
LFP_RS.OHMM                 :  Shallow Resistivity
LFP_RT_LOG.OHMM                 :  Deep Resistivity
~Parameter Information Block
#MNEM.UNIT            Value   Description
#---------- ----------------  -----------
PROJECT.     LFP@st-vlinapp01:  
SET  .                  LFP:  
~Other Information Block
# 
~A       DEPTH       LFP_CALI       LFP_DRHO   LFP_DTST_LOG    LFP_DTS_LOG     LFP_DT_LOG         LFP_GR       LFP_NPHI        LFP_PEF   LFP_RHOB_LOG         LFP_RM         LFP_RS     LFP_RT_LOG 
# ...
    3117.79920         8.6192       0.006063       284.1636       139.8101        77.1900       105.2298       0.293986         3.7568         2.5987         9.1737         9.4693         9.0933
    3117.95160         8.6008       0.006349       284.5002       139.7242        77.1200       101.7111       0.292529         3.8200         2.6047         9.0690         9.3546         8.9827
    3118.10400         8.6004       0.004561       284.1502       138.8086        76.8100        96.2881       0.283170         3.8468         2.6094         8.9815         9.2555         8.8891
    3118.25640         8.6172       0.005120       283.6569       138.5505        76.7600        95.2074       0.266232         3.8659         2.6090         8.9380         9.1977         8.8396
    3118.40880         8.6189       0.008954       283.4753       138.1758        76.9500        95.0694       0.262604         3.8295         2.6044         8.8982         9.1368         8.7960
    3118.56120         8.6040       0.010651       283.4753       138.1758        76.9500        95.0364       0.270598         3.6941         2.5959         8.7474         8.9620         8.6466
    3118.71360         8.6288       0.011289       282.4743       137.6813        76.8400        95.4971       0.274981         3.5932         2.5939         8.4025         8.5932         8.3102
    3118.86600         8.6377       0.010946       284.1660       137.3724        76.9200        94.0004       0.274483         3.6128         2.5933         8.1681         8.3510         8.0840
    3119.01840         8.5911       0.009400       284.9893       137.2473        77.0800        92.7296       0.264696         3.6723         2.5864         8.3946         8.6034         8.3116
    3119.17080         8.5897       0.007943       284.9893       137.2473        77.0800        94.1021       0.250252         3.6709         2.5840         8.9314         9.2002         8.8466
    3119.32320         8.6048       0.007756       285.3581       136.7337        77.0200        95.3376       0.258380         3.6217         2.5886         9.2557         9.5801         9.1767
    3119.47560         8.6123       0.011862       284.9426       136.5551        77.2900        95.6555       0.269802         3.6563         2.5949         9.2307         9.5941         9.1656
    3119.62800         8.6057       0.015936       284.6124       136.3879        77.1800        95.6537       0.263169         3.8388         2.6121         9.1267         9.5374         9.0769
    3119.78040         8.6039       0.010714       284.3952       137.0163        77.2600        95.8049       0.282904         4.0043         2.6392         9.0478         9.4968         9.0132
    3119.93280         8.5986      -0.001275       284.1898       137.3147        77.3900        97.4769       0.287678         3.9553         2.6420         9.0993         9.5404         9.0797
    3120.08520         8.5935      -0.004542       284.1795       137.2882        77.3900        99.3448       0.274849         3.7756         2.6183         9.3531         9.7197         9.3509
    3120.23760         8.5902       0.000323       284.1795       137.2882        77.3900       100.9071       0.254966         3.6549         2.6013         9.5169         9.7646         9.5359
    3120.39000         8.6005       0.003447       284.1183       137.3978        77.4900       101.2404       0.254022         3.6193         2.5983         9.5062         9.6629         9.5485
    3120.54240         8.6070       0.005876       284.2586       135.6671        77.6000       101.5172       0.253148         3.5621         2.5955         9.3696         9.4710         9.4362
    3120.69480         8.6141       0.008159       284.0869       135.4957        77.5200       102.4591       0.256707         3.4584         2.5863         9.2612         9.3067         9.3556
    3120.84720         8.6114       0.010183       284.0131       135.4383        77.2500       101.5705       0.257884         3.4289         2.5840         9.4016         9.3711         9.5312
    3120.99960         8.6128       0.012349       284.2331       134.5032        76.5700       100.8150       0.269717         3.5153         2.5978         9.7386         9.7228         9.9077
    3121.15200         8.6151       0.014620       284.2136       134.5411        76.5800       100.6808       0.259993         3.7000         2.6171        10.1469         9.9397        10.3560
    3121.30440         8.5891       0.016245       284.0593       133.8715        76.4200        97.8768       0.251724         3.9644         2.6285        10.5736        10.2811        10.8196
    3121.45680         8.6040       0.015400       284.0593       133.8715        76.4200        94.9214       0.245482         4.1607         2.6311        11.0103        10.6991        11.2867
    3121.60920         8.6128       0.012795       283.9388       133.5381        76.4100        93.3548       0.239051         4.1619         2.6271        10.9265        10.6549        11.2119
    3121.76160         8.6092       0.009760       283.0321       133.8096        76.6200        93.3507       0.233053         4.0076         2.6114        10.4089        10.1912        10.6840
    3121.91400         8.6002       0.007287       282.8519       135.2884        76.2100        95.5863       0.243224         3.7550         2.5938         9.7909         9.6389        10.0478
    3122.06640         8.6058       0.005770       283.7286       135.5863        76.8200        98.1408       0.253221         3.5352         2.5858         9.2924         9.2805         9.5321
    3122.21880         8.6039       0.006028       283.7286       135.5863        76.8200        99.8070       0.239465         3.5070         2.5818         8.7943         8.7270         9.0162
    3122.37120         8.5862       0.008042       284.1209       136.3749        76.8500       100.2163       0.238885         3.5980         2.5811         8.6493         8.6031         8.8631
    3122.52360         8.5841       0.009116       284.1209       136.3749        76.8500        98.6572       0.254724         3.6768         2.5860         8.7842         8.7626         8.9979
    3122.67600         8.6137       0.010160       284.2857       137.0246        77.3300        96.6451       0.257231         3.7288         2.5877         8.8431         8.8307         9.0553
    3122.82840         8.6153       0.013230       284.3426       137.6161        77.4800        97.3514       0.258117         3.7665         2.5859         8.8129         8.7901         9.0211
    3122.98080         8.6100       0.015835       284.7483       138.5170        77.6400       100.5181       0.261107         3.7790         2.5928         8.9646         8.9242         9.1713
    3123.13320         8.6091       0.016751       284.1483       139.9277        77.8700       101.5364       0.273314         3.7397         2.6060         9.2420         9.1865         9.4465
    3123.28560         8.6067       0.017500       284.4488       140.3547        78.0400       100.5541       0.282033         3.6890         2.6179         9.3003         9.2336         9.4933
    3123.43800         8.5956       0.017900       284.4386       140.6620        78.0500        99.6319       0.279922         3.7236         2.6228         9.1390         9.0629         9.3125
    3123.59040         8.5897       0.015843       284.1331       141.9358        78.0500        99.0435       0.287580         3.8267         2.6192         9.0068         8.9478         9.1591
    3123.74280         8.6066       0.011752       284.1331       141.9358        78.0500        99.1908       0.323186         3.9088         2.6155         8.9075         8.8749         9.0381
    3123.89520         8.6093       0.008997       284.7324       142.9000        79.0700       100.3838       0.338441         3.9509         2.6152         8.6678         8.6166         8.7748
    3124.04760         8.6044       0.008061       284.8888       143.7093        79.3900       101.6916       0.323637         3.9172         2.6120         8.3785         8.4032         8.4627
